[
  {
    "lat": "45.1878519",
    "lng": "5.7279457",
    "id": 1825271,
    "name": "PARAPHARMACIE LACHCAR",
    "phone": "04 57 39 18 31",
    "marker_image": "\/\/cdn.shopify.com\/s\/files\/1\/0209\/8325\/1008\/t\/3\/assets\/scasl_1548771994pin-map-saeve_compact.png",
    "address": "5 Place Vaucanson",
    "city": "Grenoble",
    "postal": "38000"
  },
  {
    "lat": "43.9482435",
    "lng": "4.8060821",
    "id": 1825272,
    "name": "GRANDE PHARMACIE GREGOIRE",
    "phone": "04 90 80 79 79",
    "marker_image": "\/\/cdn.shopify.com\/s\/files\/1\/0209\/8325\/1008\/t\/3\/assets\/scasl_1548772069pin-map-saeve_compact.png",
    "address": "7 Rue de la République",
    "city": "Avignon",
    "postal": "84000"
  },
  {
    "lat": "43.364113",
    "lng": "5.350688",
    "id": 1825273,
    "name": "PHARMACIE GRAND LITTORAL",
    "phone": "04 91 09 82 10",
    "marker_image": "\/\/cdn.shopify.com\/s\/files\/1\/0209\/8325\/1008\/t\/3\/assets\/scasl_1548772269pin-map-saeve_compact.png",
    "address": "ZAC de Saint André, Centre Commercial Grand Littoral",
    "city": "Marseille",
    "postal": "13016"
  },
  {
    "lat": "43.4913748",
    "lng": "-1.4767827",
    "id": 1825274,
    "name": "GRANDE PHARMACIE DE BAYONNE",
    "phone": "05 59 25 59 28",
    "marker_image": "\/\/cdn.shopify.com\/s\/files\/1\/0209\/8325\/1008\/t\/3\/assets\/scasl_1548772425pin-map-saeve_compact.png",
    "address": "1 Rue Aristides De Sousa Mendes",
    "city": "Bayonne",
    "postal": "64100"
  },
  {
    "lat": "44.3502502",
    "lng": "2.5710616",
    "id": 1825275,
    "name": "PHARMACIE LAFAYETTE FOCH",
    "phone": "05 65 68 06 60",
    "marker_image": "\/\/cdn.shopify.com\/s\/files\/1\/0209\/8325\/1008\/t\/3\/assets\/scasl_1548772334pin-map-saeve_compact.png",
    "address": "10 rue Combarel",
    "city": "Rodez",
    "postal": "12000"
  },
  {
    "lat": "43.8194465",
    "lng": "4.3518975",
    "id": 1825276,
    "name": "GRANDE PARAPHARMACIE DU PERIPH'",
    "phone": "04 66 26 58 09",
    "marker_image": "\/\/cdn.shopify.com\/s\/files\/1\/0209\/8325\/1008\/t\/3\/assets\/scasl_1548771714pin-map-saeve_compact.png",
    "address": "379 Rue de l'Archipel",
    "city": "Nîmes",
    "postal": "30900"
  },
  {
    "lat": "46.1664013",
    "lng": "-1.1787998",
    "id": 1825277,
    "name": "PHARMACIE DE L'EUROPE",
    "phone": "05 46 42 32 00",
    "marker_image": "\/\/cdn.shopify.com\/s\/files\/1\/0209\/8325\/1008\/t\/3\/assets\/scasl_1548772517pin-map-saeve_compact.png",
    "address": "1 Passage de l'Europe",
    "city": "La Rochelle",
    "postal": "17000"
  },
  {
    "lat": "42.6997702",
    "lng": "2.8946129",
    "id": 1825278,
    "name": "GRANDE PHARMACIE DE LA LOGE",
    "phone": "04.68.34.42.17",
    "marker_image": "\/\/cdn.shopify.com\/s\/files\/1\/0209\/8325\/1008\/t\/3\/assets\/scasl_1548771698pin-map-saeve_compact.png",
    "address": "4 place de la Loge",
    "city": "Perpignan",
    "postal": "66000"
  },
  {
    "lat": "44.841478",
    "lng": "-0.5741837",
    "id": 1825279,
    "name": "PHARMACIE PRINCIPALE - BORDEAUX",
    "phone": "05 56 48 14 44",
    "marker_image": "\/\/cdn.shopify.com\/s\/files\/1\/0209\/8325\/1008\/t\/3\/assets\/scasl_1548771688pin-map-saeve_compact.png",
    "address": "10 Rue Sainte-Catherine",
    "city": "Bordeaux",
    "postal": "33000"
  },
  {
    "lat": "45.7636187",
    "lng": "4.8355907",
    "id": 1825280,
    "name": "GRANDE PHARMACIE LYONNAISE",
    "phone": "04 72 56 44 00",
    "marker_image": "\/\/cdn.shopify.com\/s\/files\/1\/0209\/8325\/1008\/t\/3\/assets\/scasl_1548771768pin-map-saeve_compact.png",
    "address": "22 Rue de la République",
    "city": "Lyon",
    "postal": "69002"
  },
  {
    "lat": "44.8429798",
    "lng": "-0.5770806",
    "id": 1825281,
    "name": "PHARMACIE DES GRANDS HOMMES",
    "phone": "05 57 59 21 92",
    "marker_image": "\/\/cdn.shopify.com\/s\/files\/1\/0209\/8325\/1008\/t\/3\/assets\/scasl_1548771757pin-map-saeve_compact.png",
    "address": "1 Place des Grands Hommes",
    "city": "Bordeaux",
    "postal": "33000"
  },
  {
    "lat": "45.7615627",
    "lng": "4.8559906",
    "id": 1825282,
    "name": "GRANDE PHARMACIE DE LA PART DIEU",
    "phone": "04 78 71 00 54",
    "marker_image": "\/\/cdn.shopify.com\/s\/files\/1\/0209\/8325\/1008\/t\/3\/assets\/scasl_1548771916pin-map-saeve_compact.png",
    "address": "17 Rue du Dr Bouchut",
    "city": "Lyon",
    "postal": "69003"
  },
  {
    "lat": "43.6091457",
    "lng": "1.3802616",
    "id": 1825283,
    "name": "PHARMACIE PRADEL",
    "phone": "05 61 49 18 22",
    "marker_image": "\/\/cdn.shopify.com\/s\/files\/1\/0209\/8325\/1008\/t\/3\/assets\/scasl_1548771905pin-map-saeve_compact.png",
    "address": "166 Route de Bayonne",
    "city": "Toulouse",
    "postal": "31300"
  },
  {
    "lat": "43.29865",
    "lng": "-0.37076",
    "id": 1825284,
    "name": "PHARMACIE DES 7 CANTONS",
    "phone": "05 59 27 71 91",
    "marker_image": "\/\/cdn.shopify.com\/s\/files\/1\/0209\/8325\/1008\/t\/3\/assets\/scasl_1548771895pin-map-saeve_compact.png",
    "address": "1 Rue Montpensier",
    "city": "Pau",
    "postal": "64000"
  },
  {
    "lat": "43.6596876",
    "lng": "7.1952041",
    "id": 1825285,
    "name": "PHARMACIE CAP 3000",
    "phone": "04 93 31 30 29",
    "marker_image": "\/\/cdn.shopify.com\/s\/files\/1\/0209\/8325\/1008\/t\/3\/assets\/scasl_1548772530pin-map-saeve_compact.png",
    "address": "Avenue Eugène Donadeï",
    "city": "Saint-Laurent-du-Var",
    "postal": "06700"
  },
  {
    "lat": "14.6044929",
    "lng": "-61.060485",
    "id": 1825286,
    "name": "PHARMACIE DE L'ESPACE SANTE (MARTINIQUE)",
    "phone": "05 96 73 42 95",
    "marker_image": "\/\/cdn.shopify.com\/s\/files\/1\/0209\/8325\/1008\/t\/3\/assets\/scasl_1548772499pin-map-saeve_compact.png",
    "address": "50 avenue Maurice Bishop",
    "city": "Fort De France",
    "postal": "97200"
  },
  {
    "lat": "48.895397",
    "lng": "2.249534",
    "id": 1825287,
    "name": "PHARMACIE CENTRALE",
    "phone": "01 43 33 75 96",
    "marker_image": "\/\/cdn.shopify.com\/s\/files\/1\/0209\/8325\/1008\/t\/3\/assets\/scasl_1548772414pin-map-saeve_compact.png",
    "address": "37 Rue de Bezons",
    "city": "Courbevoie",
    "postal": "92400"
  },
  {
    "lat": "43.2752104",
    "lng": "5.3893709",
    "id": 1825288,
    "name": "PHARMACIE PRADO MERMOZ",
    "phone": "04 91 77 59 64",
    "marker_image": "\/\/cdn.shopify.com\/s\/files\/1\/0209\/8325\/1008\/t\/3\/assets\/scasl_1548771872pin-map-saeve_compact.png",
    "address": "244 Avenue du Prado",
    "city": "Marseille",
    "postal": "13008"
  },
  {
    "lat": "45.6490269",
    "lng": "0.161603",
    "id": 1825289,
    "name": "PHARMACIE JOUBERT",
    "phone": "05 45 92 57 44",
    "marker_image": "\/\/cdn.shopify.com\/s\/files\/1\/0209\/8325\/1008\/t\/3\/assets\/scasl_1548771981pin-map-saeve_compact.png",
    "address": "Place du Champ de Mars",
    "city": "Angoulême",
    "postal": "16000"
  },
  {
    "lat": "49.0263647",
    "lng": "1.1485494",
    "id": 1825290,
    "name": "PHARMACIE PRO SANTE BEAUTE",
    "phone": "02 32 38 19 68",
    "marker_image": "\/\/cdn.shopify.com\/s\/files\/1\/0209\/8325\/1008\/t\/3\/assets\/scasl_1548771928pin-map-saeve_compact.png",
    "address": "3 Rue de Grenoble",
    "city": "Évreux",
    "postal": "27000"
  },
  {
    "lat": "44.0167649",
    "lng": "1.3553563",
    "id": 1825291,
    "name": "PHARMACIE PEYRE JOORIS MUEL-JONQUERES",
    "phone": "05 63 63 01 63",
    "marker_image": "\/\/cdn.shopify.com\/s\/files\/1\/0209\/8325\/1008\/t\/3\/assets\/scasl_1548772217pin-map-saeve_compact.png",
    "address": "37 Rue de la Résistance",
    "city": "Montauban",
    "postal": "82000"
  },
  {
    "lat": "48.8292678",
    "lng": "2.3552186",
    "id": 1825292,
    "name": "PHARMACIE ITALIE 2 NEXTYPHARM",
    "phone": "01 45 80 02 08",
    "marker_image": "\/\/cdn.shopify.com\/s\/files\/1\/0209\/8325\/1008\/t\/3\/assets\/scasl_1548772300pin-map-saeve_compact.png",
    "address": "Centre Commercial Italie Deux - 30 Avenue d'Italie",
    "city": "Paris",
    "postal": "75013"
  },
  {
    "lat": "43.8285899",
    "lng": "5.0366903",
    "id": 1825293,
    "name": "PAFICO CAVAILLON",
    "phone": "04 90 71 26 81",
    "marker_image": "\/\/cdn.shopify.com\/s\/files\/1\/0209\/8325\/1008\/t\/3\/assets\/scasl_1548772473pin-map-saeve_compact.png",
    "address": "31 Allée Roch Pape",
    "city": "Cavaillon",
    "postal": "84300"
  },
  {
    "lat": "46.2071087",
    "lng": "-1.5073644",
    "id": 1825294,
    "name": "PHARMACIE LE MARCHÉ",
    "marker_image": "\/\/cdn.shopify.com\/s\/files\/1\/0209\/8325\/1008\/t\/3\/assets\/scasl_1548772009pin-map-saeve_compact.png",
    "address": "1 chemin des Gâtines ZA  ",
    "city": "Ars-en-Ré",
    "postal": "17590"
  },
  {
    "lat": "44.0351148",
    "lng": "5.000573",
    "id": 1825295,
    "name": "PHARMACIE BECKER",
    "phone": "04 90 61 37 30",
    "marker_image": "\/\/cdn.shopify.com\/s\/files\/1\/0209\/8325\/1008\/t\/3\/assets\/scasl_1548772255pin-map-saeve_compact.png",
    "address": "32 bis Avenue René Cassin",
    "city": "Monteux",
    "postal": "84170"
  },
  {
    "lat": "43.520422",
    "lng": "4.964103",
    "id": 1825296,
    "name": "PHARMACIE DU CENTRE COMMERCIAL ISTRES",
    "phone": "04 42 55 05 58",
    "marker_image": "\/\/cdn.shopify.com\/s\/files\/1\/0209\/8325\/1008\/t\/3\/assets\/scasl_1548772378pin-map-saeve_compact.png",
    "address": "C.c. Leclerc, Chemin Bord de Crau ",
    "city": "Istres",
    "postal": "13800"
  },
  {
    "lat": "43.846987",
    "lng": "5.040741",
    "id": 1825297,
    "name": "PHARMACIE DES CONDAMINES",
    "phone": "04 90 71 01 61",
    "marker_image": "\/\/cdn.shopify.com\/s\/files\/1\/0209\/8325\/1008\/t\/3\/assets\/scasl_1548772231pin-map-saeve_compact.png",
    "address": "90 Place des fêtes",
    "city": "Cavaillon",
    "postal": "84300"
  },
  {
    "lat": "43.5267456",
    "lng": "5.4472745",
    "id": 1825298,
    "name": "PHARMACIE DU COURS MIRABEAU",
    "phone": "04 42 93 63 60",
    "marker_image": "\/\/cdn.shopify.com\/s\/files\/1\/0209\/8325\/1008\/t\/3\/assets\/scasl_1548772243pin-map-saeve_compact.png",
    "address": "17Bis Cours Mirabeau",
    "city": "Aix-en-Provence",
    "postal": "13100"
  },
  {
    "lat": "48.8527634",
    "lng": "2.3333529",
    "id": 1825299,
    "name": "PHARMACIE DU FOUR BONAPARTE (CITYPHARMA)",
    "phone": "01 46 33 20 81",
    "marker_image": "\/\/cdn.shopify.com\/s\/files\/1\/0209\/8325\/1008\/t\/3\/assets\/scasl_1548772485pin-map-saeve_compact.png",
    "address": "26 Rue du Four",
    "city": "Paris",
    "postal": "75006"
  },
  {
    "lat": "43.454199",
    "lng": "5.4684789",
    "id": 1825300,
    "name": "PHARMACIE PRINCIPALE",
    "phone": "04 42 58 34 09",
    "marker_image": "\/\/cdn.shopify.com\/s\/files\/1\/0209\/8325\/1008\/t\/3\/assets\/scasl_1548772360pin-map-saeve_compact.png",
    "address": "2 Boulevard Carnot",
    "city": "Gardanne",
    "postal": "13120"
  },
  {
    "lat": "45.788863",
    "lng": "4.775018",
    "id": 1825301,
    "name": "PHARMACIE ROSET-PETIT",
    "phone": "04 78 33 56 72",
    "marker_image": "\/\/cdn.shopify.com\/s\/files\/1\/0209\/8325\/1008\/t\/3\/assets\/scasl_1548772283pin-map-saeve_compact.png",
    "address": "Centre Commercial Carrefour, Ecully Grand Ouest Le Pérollier, Chemin Jean-Marie Vianney",
    "city": "Écully",
    "postal": "69130"
  },
  {
    "lat": "46.2307861",
    "lng": "6.1182635",
    "id": 1825302,
    "name": "PHARMACIE DE LA TOUR",
    "phone": "+41 22 798 10 90",
    "marker_image": "\/\/cdn.shopify.com\/s\/files\/1\/0209\/8325\/1008\/t\/3\/assets\/scasl_1548772347pin-map-saeve_compact.png",
    "address": "Chemin Edouard-Sarasin 24",
    "city": "Le Grand-Saconnex, SUISSE",
    "postal": "1218"
  },
  {
    "lat": "47.466908",
    "lng": "-0.5230412999999317",
    "id": 1825303,
    "name": "PARAPHARMACIE ESPACE SANTE LAGOON",
    "phone": "02 41 87 79 47",
    "marker_image": "\/\/cdn.shopify.com\/s\/files\/1\/0209\/8325\/1008\/t\/3\/assets\/scasl_1548772323pin-map-saeve_compact.png",
    "address": "Centre Commercial Espace Anjou, 75 Avenue Montaigne",
    "city": "Angers",
    "postal": "49100"
  },
  {
    "lat": "43.583452",
    "lng": "5.001355",
    "id": 1825304,
    "name": "PHARMACIE CARGOL",
    "phone": "04 90 50 21 21",
    "marker_image": "\/\/cdn.shopify.com\/s\/files\/1\/0209\/8325\/1008\/t\/3\/assets\/scasl_1548772312pin-map-saeve_compact.png",
    "address": "43 Avenue Charles de Gaulle",
    "city": "Miramas",
    "postal": "13140"
  },
  {
    "lat": "44.9617137",
    "lng": "2.4167379",
    "id": 1825305,
    "name": "PHARMACIE DELORT",
    "phone": "04 71 47 22 82",
    "marker_image": "\/\/cdn.shopify.com\/s\/files\/1\/0209\/8325\/1008\/t\/3\/assets\/scasl_1548772101pin-map-saeve_compact.png",
    "address": "43 Avenue Henri Mondor",
    "city": "Naucelles",
    "postal": "15250"
  },
  {
    "lat": "47.5834631",
    "lng": "-3.0795831",
    "id": 1825306,
    "name": "PHARMACIE SAINT CORNELY",
    "phone": "02 97 52 03 44",
    "marker_image": "\/\/cdn.shopify.com\/s\/files\/1\/0209\/8325\/1008\/t\/3\/assets\/scasl_1548772114pin-map-saeve_compact.png",
    "address": "4 Rue Saint-Cornély",
    "city": "Carnac",
    "postal": "56340"
  },
  {
    "lat": "48.3774341",
    "lng": "0.6811632",
    "id": 1825307,
    "name": "PHARMACIE DES COLLINES",
    "phone": "02 33 73 54 19",
    "marker_image": "\/\/cdn.shopify.com\/s\/files\/1\/0209\/8325\/1008\/t\/3\/assets\/scasl_1548772084pin-map-saeve_compact.png",
    "address": "40 Rue du Général Jouvin",
    "city": "Nocé",
    "postal": "61340"
  },
  {
    "lat": "41.99615",
    "lng": "9.4027254",
    "id": 1825309,
    "name": "PHARMACIE TADDEI MEDORI",
    "phone": "04 95 56 08 31",
    "marker_image": "\/\/cdn.shopify.com\/s\/files\/1\/0209\/8325\/1008\/t\/3\/assets\/scasl_1548772033pin-map-saeve_compact.png",
    "address": "Migliacciaro, Route nationale 198",
    "city": "Prunelli-di-Fiumorbo (Corse)",
    "postal": "20243"
  },
  {
    "lat": "43.4169396",
    "lng": "5.0017143",
    "id": 1825310,
    "name": "PHARMACIE SAINT JEAN",
    "phone": "04 42 06 32 21",
    "marker_image": "\/\/cdn.shopify.com\/s\/files\/1\/0209\/8325\/1008\/t\/3\/assets\/scasl_1548772045pin-map-saeve_compact.png",
    "address": "Avenue Clément Mille",
    "city": "Port-de-Bouc",
    "postal": "13110"
  },
  {
    "lat": "43.418724",
    "lng": "5.234677",
    "id": 1825311,
    "name": "PHARMACIE SAINT VICTORET",
    "phone": "04 42 89 29 26",
    "marker_image": "\/\/cdn.shopify.com\/s\/files\/1\/0209\/8325\/1008\/t\/3\/assets\/scasl_1548772205pin-map-saeve_compact.png",
    "address": "Centre commercial Casino, Avenue Jacques Prévert",
    "city": "Saint Victoret",
    "postal": "13730"
  },
  {
    "lat": "43.7294485",
    "lng": "5.1786512",
    "id": 1825312,
    "name": "PHARMACIE CENTRALE MENDELSOHN",
    "phone": "04 90 59 42 40 ",
    "marker_image": "\/\/cdn.shopify.com\/s\/files\/1\/0209\/8325\/1008\/t\/3\/assets\/scasl_1548772057pin-map-saeve_compact.png",
    "address": "2 place Raoul Coustet ",
    "city": "Mallemort",
    "postal": "13370"
  },
  {
    "lat": "43.6474614",
    "lng": "5.1020017",
    "id": 1825313,
    "name": "PHARMACIE DE L'EUROPE SALON DE PROVENCE",
    "phone": "04 90 53 20 69",
    "marker_image": "\/\/cdn.shopify.com\/s\/files\/1\/0209\/8325\/1008\/t\/3\/assets\/scasl_1548772401pin-map-saeve_compact.png",
    "address": "715 avenue de l'Europe",
    "city": "Salon-de-Provence",
    "postal": "13300"
  },
  {
    "lat": "43.6599612",
    "lng": "3.9051942",
    "id": 1825314,
    "name": "PHARMACIE BOCAUD",
    "phone": "04 67 55 95 70",
    "marker_image": "\/\/cdn.shopify.com\/s\/files\/1\/0209\/8325\/1008\/t\/3\/assets\/scasl_1548772141pin-map-saeve_compact.png",
    "address": "Espace Bocaud, 1 Avenue de Vendargues",
    "city": "Jacou",
    "postal": "34830"
  },
  {
    "lat": "44.9275846",
    "lng": "2.4441722",
    "id": 1825315,
    "name": "PHARMACIE DU CENTRE AURILLAC",
    "phone": "04 71 48 05 74",
    "marker_image": "\/\/cdn.shopify.com\/s\/files\/1\/0209\/8325\/1008\/t\/3\/assets\/scasl_1548771967pin-map-saeve_compact.png",
    "address": "10 Place du Square",
    "city": "Aurillac",
    "postal": "15000"
  },
  {
    "lat": "37.5649053",
    "lng": "126.98121879999997",
    "id": 1880354,
    "name": "OMEY URBAN APOTHECARY (SOUTH KOREA)",
    "phone": "+82 2-771-2500",
    "marker_image": "\/\/cdn.shopify.com\/s\/files\/1\/0209\/8325\/1008\/t\/3\/assets\/scasl_1548772437pin-map-saeve_compact.png",
    "address": "81, Namdaemun-ro, Jung-gu, Lotte Department Store Main",
    "country": "Korea, South",
    "city": "Seoul",
    "postal": "04533"
  },
  {
    "lat": "48.86261589999999",
    "lng": "2.335017500000049",
    "id": 1880356,
    "name": "OMEY URBAN APOTHECARY (LOUVRE)",
    "phone": "01 77 85 73 04",
    "marker_image": "\/\/cdn.shopify.com\/s\/files\/1\/0209\/8325\/1008\/t\/3\/assets\/scasl_1548772391pin-map-saeve_compact.png",
    "address": "Carrousel du Louvre, 99 rue de Rivoli",
    "city": "Paris",
    "postal": "75001"
  },
  {
    "lat": "43.60378",
    "lng": "3.9206930000000284",
    "id": 2034233,
    "name": "PHARMACIE ODYSSEM",
    "phone": "04 67 10 89 09",
    "marker_image": "https:\/\/cdn.shopify.com\/s\/files\/1\/0209\/8325\/1008\/t\/3\/assets\/scasl_1548772084pin-map-saeve.png?8366626361900939188",
    "address": "2 Place de Lisbonne",
    "city": "Montpellier",
    "postal": "34000"
  },
  {
    "lat": "43.4692045",
    "lng": "5.231994299999997",
    "id": 2043125,
    "name": "GRANDS VITROLES",
    "phone": "04 42 46 81 20",
    "marker_image": "https:\/\/cdn.shopify.com\/s\/files\/1\/0209\/8325\/1008\/t\/3\/assets\/scasl_1548772084pin-map-saeve.png?8366626361900939188",
    "address": "Route Nationale 113",
    "city": "Vitrolles",
    "postal": "13127"
  },
  {
    "lat": "44.1651648",
    "lng": "4.873876500000051",
    "id": 2043126,
    "name": "PHARMACIE DU COURS DU NORD",
    "phone": "04 90 37 20 04",
    "marker_image": "https:\/\/cdn.shopify.com\/s\/files\/1\/0209\/8325\/1008\/t\/3\/assets\/scasl_1548772084pin-map-saeve.png?8366626361900939188",
    "address": "23 Cours du Nord",
    "city": "Camaret-sur-Aigues",
    "postal": "84850"
  },
  {
    "lat": "43.39407449999999",
    "lng": "4.79752289999999",
    "id": 2043128,
    "name": "PHARMACIE DU STADE",
    "phone": "04 42 86 00 39",
    "marker_image": "https:\/\/cdn.shopify.com\/s\/files\/1\/0209\/8325\/1008\/t\/3\/assets\/scasl_1548772084pin-map-saeve.png?8366626361900939188",
    "address": "81 Avenue du Port",
    "city": "Port-Saint-Louis-du-Rhône",
    "postal": "13230"
  },
  {
    "lat": "43.417107",
    "lng": "5.232849",
    "id": 2043131,
    "name": "PHARMACIE BELLINASO-FABRE",
    "phone": "04 42 89 29 26",
    "marker_image": "https:\/\/cdn.shopify.com\/s\/files\/1\/0209\/8325\/1008\/t\/3\/assets\/scasl_1548772084pin-map-saeve.png?8366626361900939188",
    "address": "Centre Commercial Casino Avenue Jacques Prévert",
    "city": "Saint-Victoret",
    "postal": "13730"
  },
  {
    "lat": "47.223405",
    "lng": "-1.5515603000000056",
    "id": 2043132,
    "name": "PHARMACIE DE L'ERDRE  - TOTUM PHARMACIENS",
    "phone": "02 40 74 02 26",
    "marker_image": "https:\/\/cdn.shopify.com\/s\/files\/1\/0209\/8325\/1008\/t\/3\/assets\/scasl_1548772084pin-map-saeve.png?8366626361900939188",
    "address": "28 Rue Pitre Chevalier",
    "city": "Nantes",
    "postal": "44000"
  },
  {
    "lat": "47.7480118",
    "lng": "-3.363311299999964",
    "id": 2043133,
    "name": "PHARMACIE ROBINET",
    "phone": "02 97 21 65 72",
    "marker_image": "https:\/\/cdn.shopify.com\/s\/files\/1\/0209\/8325\/1008\/t\/3\/assets\/scasl_1548772084pin-map-saeve.png?8366626361900939188",
    "address": "19 Place Aristide Briand",
    "city": "Lorient",
    "postal": "56100"
  },
  {
    "lat": "48.1161513",
    "lng": "-1.6740578999999798",
    "id": 2043134,
    "name": "PHARMACIE DE LA BARRE ST JUST",
    "phone": "02 99 36 30 96",
    "marker_image": "https:\/\/cdn.shopify.com\/s\/files\/1\/0209\/8325\/1008\/t\/3\/assets\/scasl_1548772084pin-map-saeve.png?8366626361900939188",
    "address": "4 rue du Général Maurice Guillaudot",
    "city": "Rennes",
    "postal": "35000"
  },
  {
    "lat": "48.8260719",
    "lng": "2.357794600000034",
    "id": 2043135,
    "name": "PHARMACIE TOLBIAC",
    "phone": "01 44 24 19 72",
    "marker_image": "https:\/\/cdn.shopify.com\/s\/files\/1\/0209\/8325\/1008\/t\/3\/assets\/scasl_1548772084pin-map-saeve.png?8366626361900939188",
    "address": "61 Avenue d'Italie",
    "city": "Paris",
    "postal": "75013"
  },
  {
    "lat": "48.8907015",
    "lng": "2.235639399999968",
    "id": 2043136,
    "name": "PHARMACIE DES 4 TEMPS",
    "phone": "01 47 73 56 92",
    "marker_image": "https:\/\/cdn.shopify.com\/s\/files\/1\/0209\/8325\/1008\/t\/3\/assets\/scasl_1548772084pin-map-saeve.png?8366626361900939188",
    "address": "15 Le Parvis centre commercial 4 temps",
    "city": "Puteaux",
    "postal": "92800"
  },
  {
    "lat": "49.4959764",
    "lng": "0.11145669999996244",
    "id": 2043137,
    "name": "ESPACE COTY",
    "phone": "02 32 74 86 87",
    "marker_image": "https:\/\/cdn.shopify.com\/s\/files\/1\/0209\/8325\/1008\/t\/3\/assets\/scasl_1548772084pin-map-saeve.png?8366626361900939188",
    "address": "22 rue Casimir Périer centre commercial",
    "city": "Le Havre",
    "postal": "76600"
  },
  {
    "lat": "48.6143645",
    "lng": "2.5473713999999745",
    "id": 2043138,
    "name": "CARRE SENART",
    "phone": "01 64 13 32 00",
    "marker_image": "https:\/\/cdn.shopify.com\/s\/files\/1\/0209\/8325\/1008\/t\/3\/assets\/scasl_1548772084pin-map-saeve.png?8366626361900939188",
    "address": "Centre Commercial - Carré Sénart",
    "city": "Lieusaint",
    "postal": "77127"
  },
  {
    "lat": "43.2233616",
    "lng": "2.33627690000003",
    "id": 2043139,
    "name": "PHARMACIE BALDY MEJEAN",
    "phone": "04 68 25 47 83",
    "marker_image": "https:\/\/cdn.shopify.com\/s\/files\/1\/0209\/8325\/1008\/t\/3\/assets\/scasl_1548772084pin-map-saeve.png?8366626361900939188",
    "address": "122 Avenue Franklin Roosevelt",
    "city": "Carcassonne",
    "postal": "11000"
  },
  {
    "lat": "48.0826827",
    "lng": "-1.6788113000000067",
    "id": 2043140,
    "name": "PHARMACIE DU CENTRE ALMA",
    "phone": "02 99 50 76 42",
    "marker_image": "https:\/\/cdn.shopify.com\/s\/files\/1\/0209\/8325\/1008\/t\/3\/assets\/scasl_1548772084pin-map-saeve.png?8366626361900939188",
    "address": "7 rue du Bosphore",
    "city": "Rennes",
    "postal": "35200"
  },
  {
    "lat": "47.1010947",
    "lng": "-1.3043526000000156",
    "id": 2206574,
    "name": "PHARMACIE DAUNEAU",
    "phone": "02 40 06 92 35",
    "marker_image": "https:\/\/cdn.shopify.com\/s\/files\/1\/0209\/8325\/1008\/t\/3\/assets\/scasl_1548772084pin-map-saeve.png?8366626361900939188",
    "address": "10 rue General Audibert",
    "city": "Gorges",
    "postal": "44190"
  },
  {
    "lat": "48.856614",
    "lng": "2.3522219000000177",
    "id": 2206575,
    "name": "PHARMACIE DU FORUM DES HALLES",
    "phone": "01 40 41 90 80",
    "marker_image": "https:\/\/cdn.shopify.com\/s\/files\/1\/0209\/8325\/1008\/t\/3\/assets\/scasl_1548772084pin-map-saeve.png?8366626361900939188",
    "address": "305 Porte Lescot Niveau -3",
    "city": "Paris",
    "postal": "75001"
  },
  {
    "lat": "48.8420473",
    "lng": "2.290566500000068",
    "id": 2206608,
    "name": "PHARMACIE FELIX FAURE",
    "phone": "01 45 57 72 37",
    "marker_image": "https:\/\/cdn.shopify.com\/s\/files\/1\/0209\/8325\/1008\/t\/3\/assets\/scasl_1548772084pin-map-saeve.png?8366626361900939188",
    "address": "19 Avenue Felix Faure",
    "city": "Paris",
    "postal": "75015"
  },
  {
    "lat": "48.8219544",
    "lng": "2.364921699999968",
    "id": 2206609,
    "name": "PHARMACIE DU C.C. MASSENA ",
    "phone": "01 44 06 72 72",
    "marker_image": "https:\/\/cdn.shopify.com\/s\/files\/1\/0209\/8325\/1008\/t\/3\/assets\/scasl_1548772084pin-map-saeve.png?8366626361900939188",
    "address": "La Galerie Massena, 13 place Venetie",
    "city": "Paris",
    "postal": "75013"
  },
  {
    "lat": "43.6067006",
    "lng": "2.245697000000064",
    "id": 2233364,
    "name": "PHARMACIE CLOT-MONINO",
    "phone": "05 63 35 35 18",
    "marker_image": "https:\/\/cdn.shopify.com\/s\/files\/1\/0209\/8325\/1008\/t\/3\/assets\/scasl_1548772084pin-map-saeve.png?8366626361900939188",
    "address": "5-7 boulevard Carnot",
    "city": "Castres",
    "postal": "81100"
  },
  {
    "lat": "45.7529715",
    "lng": "3.1271924999999783",
    "id": 2233365,
    "name": "PHARMAMMOUTH",
    "phone": "04 73 26 88 31",
    "marker_image": "https:\/\/cdn.shopify.com\/s\/files\/1\/0209\/8325\/1008\/t\/3\/assets\/scasl_1548772084pin-map-saeve.png?8366626361900939188",
    "address": "101 avenue Jean Moulin",
    "city": "Aubière",
    "postal": "63170"
  },
  {
    "lat": "45.218333",
    "lng": "2.3326296000000184",
    "id": 2406733,
    "name": "PHARMACIE MALBEC",
    "phone": "04 71 67 32 95",
    "marker_image": "https:\/\/cdn.shopify.com\/s\/files\/1\/0209\/8325\/1008\/t\/3\/assets\/scasl_1548772084pin-map-saeve.png?8366626361900939188",
    "address": "10 rue Notre Dame",
    "city": "Mauriac",
    "postal": "15200"
  },
  {
    "lat": "42.7070604",
    "lng": "9.45287170000006",
    "id": 2406734,
    "name": "PHARMACIE PORT TOGA",
    "phone": "04 95 32 76 76",
    "marker_image": "https:\/\/cdn.shopify.com\/s\/files\/1\/0209\/8325\/1008\/t\/3\/assets\/scasl_1548772084pin-map-saeve.png?8366626361900939188",
    "address": "C.C. PORT TOGA",
    "city": "Bastia",
    "postal": "20200"
  },
  {
    "lat": "47.7752407",
    "lng": "-2.0820876000000226",
    "id": 2406735,
    "name": "PHARMACIE DRION",
    "phone": "02 99 70 03 34",
    "marker_image": "https:\/\/cdn.shopify.com\/s\/files\/1\/0209\/8325\/1008\/t\/3\/assets\/scasl_1548772084pin-map-saeve.png?8366626361900939188",
    "address": "7 Rue de la Sauldre",
    "city": "Sixt-sur-Aff",
    "postal": "35550"
  },
  {
    "lat": "46.608127",
    "lng": "0.36250300000006064",
    "id": 2406736,
    "name": "PHARMACIE GILLES",
    "phone": "05 49 45 89 03",
    "marker_image": "https:\/\/cdn.shopify.com\/s\/files\/1\/0209\/8325\/1008\/t\/3\/assets\/scasl_1548772084pin-map-saeve.png?8366626361900939188",
    "address": "24 Rue de Terrageaux",
    "city": "Buxerolles",
    "postal": "86180"
  },
  {
    "lat": "45.8895937",
    "lng": "3.0699544999999944",
    "id": 2406737,
    "name": "PHARMACIE D'ENVAL",
    "phone": "04 73 38 98 41",
    "marker_image": "https:\/\/cdn.shopify.com\/s\/files\/1\/0209\/8325\/1008\/t\/3\/assets\/scasl_1548772084pin-map-saeve.png?8366626361900939188",
    "address": "Centre Commercial d'Enval E.Leclerc",
    "city": "Enval",
    "postal": "63530"
  },
  {
    "lat": "47.2109562",
    "lng": "-1.5513948999999911",
    "id": 2406738,
    "name": "PHARMACIE DE LA MADELEINE",
    "phone": "02 40 47 99 08",
    "marker_image": "https:\/\/cdn.shopify.com\/s\/files\/1\/0209\/8325\/1008\/t\/3\/assets\/scasl_1548772084pin-map-saeve.png?8366626361900939188",
    "address": "17 Chaussée de la Madeleine",
    "city": "Nantes",
    "postal": "44000"
  },
  {
    "lat": "42.6743985",
    "lng": "9.437724600000024",
    "id": 2406739,
    "name": "PHARMACIE SAINT PIERRE",
    "phone": "04 95 33 53 09",
    "marker_image": "https:\/\/cdn.shopify.com\/s\/files\/1\/0209\/8325\/1008\/t\/3\/assets\/scasl_1548772084pin-map-saeve.png?8366626361900939188",
    "address": "Rue du Capitaine Then",
    "city": "Bastia",
    "postal": "20600"
  },
  {
    "lat": "47.398791",
    "lng": "-0.5294659999999567",
    "id": 2406740,
    "name": "PHARMACIE RIVE SUD",
    "phone": "02 41 57 76 90",
    "marker_image": "https:\/\/cdn.shopify.com\/s\/files\/1\/0209\/8325\/1008\/t\/3\/assets\/scasl_1548772084pin-map-saeve.png?8366626361900939188",
    "address": "HYPER U, 26 Rue Valentin des Ormeaux",
    "city": "Mûrs-Erigné",
    "postal": "49610"
  },
  {
    "lat": "43.3228663",
    "lng": "-0.37085400000000845",
    "id": 2406741,
    "name": "PHARMACIE LAFAYETTE ZENITH",
    "phone": "05 59 13 04 44",
    "marker_image": "https:\/\/cdn.shopify.com\/s\/files\/1\/0209\/8325\/1008\/t\/3\/assets\/scasl_1548772084pin-map-saeve.png?8366626361900939188",
    "address": "333 boulevard de la Paix",
    "city": "Pau",
    "postal": "64000"
  },
  {
    "lat": "47.2162937",
    "lng": "-1.5527945000000045",
    "id": 2406742,
    "name": "PHARMACIE PILORI",
    "phone": "02 40 47 48 35",
    "marker_image": "https:\/\/cdn.shopify.com\/s\/files\/1\/0209\/8325\/1008\/t\/3\/assets\/scasl_1548772084pin-map-saeve.png?8366626361900939188",
    "address": "1 Place du Pilori",
    "city": "Nantes",
    "postal": "44000"
  },
  {
    "lat": "48.1185274",
    "lng": "-1.6892718000000286",
    "id": 2406743,
    "name": "PHARMACIE ANATOLE FRANCE",
    "phone": "02 99 59 21 00",
    "marker_image": "https:\/\/cdn.shopify.com\/s\/files\/1\/0209\/8325\/1008\/t\/3\/assets\/scasl_1548772084pin-map-saeve.png?8366626361900939188",
    "address": "49 boulevard Verdun",
    "city": "Rennes",
    "postal": "35000"
  },
  {
    "lat": "49.194934",
    "lng": "0.3562689999999975",
    "id": 2406744,
    "name": "PHARMACIE CHAUVIN",
    "phone": "02 31 63 61 48",
    "marker_image": "https:\/\/cdn.shopify.com\/s\/files\/1\/0209\/8325\/1008\/t\/3\/assets\/scasl_1548772084pin-map-saeve.png?8366626361900939188",
    "address": "6 Place de Verdun",
    "city": "Moyaux",
    "postal": "14590"
  },
  {
    "lat": "44.8696699",
    "lng": "-0.5118953999999576",
    "id": 2488558,
    "name": "PHARMACIE DE LA ROCADE LORMONT",
    "phone": "05 56 81 58 08",
    "marker_image": "https:\/\/cdn.shopify.com\/s\/files\/1\/0209\/8325\/1008\/t\/3\/assets\/scasl_1548772084pin-map-saeve.png?8366626361900939188",
    "address": "2 Allée René Cassagne",
    "city": "Lormont",
    "postal": "33310"
  },
  {
    "lat": "43.60886319999999",
    "lng": "3.873126500000012",
    "id": 2488559,
    "name": "PHARMACIE LAFAYETTE DE L'ARC",
    "phone": "04 67 60 46 53",
    "marker_image": "https:\/\/cdn.shopify.com\/s\/files\/1\/0209\/8325\/1008\/t\/3\/assets\/scasl_1548772084pin-map-saeve.png?8366626361900939188",
    "address": "13 boulevard Ledru Rollin",
    "city": "Montpellier",
    "postal": "34000"
  },
  {
    "lat": "48.9913196",
    "lng": "2.5219462999999678",
    "id": 2494446,
    "name": "PHARMACIE DU VIEUX PAYS",
    "phone": "01 74 25 78 35",
    "marker_image": "https:\/\/cdn.shopify.com\/s\/files\/1\/0209\/8325\/1008\/t\/3\/assets\/scasl_1548772084pin-map-saeve.png?8366626361900939188",
    "address": "Centre Commercial Aéroville - Cargo 4, 30 rue des buissons",
    "city": "Tremblay-en-France",
    "postal": "93290"
  },
  {
    "lat": "43.5524142",
    "lng": "7.024925899999971",
    "id": 2494447,
    "name": "PHARMACE ANGLO FRANÇAISE",
    "phone": "04 97 06 98 16 - 04 93 38 53 79",
    "marker_image": "https:\/\/cdn.shopify.com\/s\/files\/1\/0209\/8325\/1008\/t\/3\/assets\/scasl_1548772084pin-map-saeve.png?8366626361900939188",
    "address": "95 rue d'Antibes",
    "city": "Cannes",
    "postal": "06400"
  },
  {
    "lat": "44.9055729",
    "lng": "-0.7444889999999305",
    "id": 2494449,
    "name": "PHARMACIE DE LA ROCADE SAINT-MÉDARD",
    "phone": "05 56 05 06 05",
    "marker_image": "https:\/\/cdn.shopify.com\/s\/files\/1\/0209\/8325\/1008\/t\/3\/assets\/scasl_1548772084pin-map-saeve.png?8366626361900939188",
    "address": "165 avenue du Général de Gaulle",
    "city": "Saint-Médard-en-Jalles",
    "postal": "33160"
  },
  {
    "lat": "45.1580784",
    "lng": "5.726818299999991",
    "id": 2494451,
    "name": "PHARMACIE GEORGES LACHCAR",
    "phone": "04 76 09 68 82",
    "marker_image": "https:\/\/cdn.shopify.com\/s\/files\/1\/0209\/8325\/1008\/t\/3\/assets\/scasl_1548772084pin-map-saeve.png?8366626361900939188",
    "address": "64 Centre Commercial Grand Place",
    "city": "Échirolles",
    "postal": "38130"
  },
  {
    "lat": "44.028475",
    "lng": "1.3695044999999482",
    "id": 2494452,
    "name": "GRANDE PHARMACIE DE L'ALHAMBRA",
    "phone": "05 63 91 60 30",
    "marker_image": "https:\/\/cdn.shopify.com\/s\/files\/1\/0209\/8325\/1008\/t\/3\/assets\/scasl_1548772084pin-map-saeve.png?8366626361900939188",
    "address": "700 Avenue Jean Moulin",
    "city": "Montauban",
    "postal": "82000"
  },
  {
    "lat": "43.606785",
    "lng": "1.4480660000000398",
    "id": 2494453,
    "name": "PHARMACIE LAFAYETTE",
    "phone": "05 61 21 19 05",
    "marker_image": "https:\/\/cdn.shopify.com\/s\/files\/1\/0209\/8325\/1008\/t\/3\/assets\/scasl_1548772084pin-map-saeve.png?8366626361900939188",
    "address": "10 Boulevard de Strasbourg",
    "city": "Toulouse",
    "postal": "31000"
  },
  {
    "lat": "48.90354199999999",
    "lng": "2.3924019999999473",
    "id": 2494454,
    "name": "GRANDE PHARMACIE  DES 4 CHEMINS",
    "phone": "01 48 45 73 71",
    "marker_image": "https:\/\/cdn.shopify.com\/s\/files\/1\/0209\/8325\/1008\/t\/3\/assets\/scasl_1548772084pin-map-saeve.png?8366626361900939188",
    "address": "74  Avenue Jean Jaurès",
    "city": "Pantin",
    "postal": "93500"
  },
  {
    "lat": "49.143775",
    "lng": "0.2545301999999765",
    "id": 2597123,
    "name": "PHARMACIE MOZART",
    "phone": "02 31 31 07 56",
    "marker_image": "\/\/cdn.shopify.com\/s\/files\/1\/0209\/8325\/1008\/t\/3\/assets\/scasl_15602558584282cbec-c1df-4082-878e-2c18ec4d3b13_compact.png",
    "address": "13 place Mozart",
    "city": "Lisieux",
    "postal": "14100"
  },
  {
    "lat": "43.7016866",
    "lng": "7.283973699999933",
    "id": 2661309,
    "name": "PHARMACIE BARLA",
    "phone": "04 93 89 42 48",
    "marker_image": "https:\/\/cdn.shopify.com\/s\/files\/1\/0209\/8325\/1008\/t\/3\/assets\/scasl_1548772084pin-map-saeve.png?8366626361900939188",
    "address": "27 rue Barla",
    "city": "Nice",
    "postal": "06300"
  },
  {
    "lat": "47.4704754",
    "lng": "-0.5512481000000662",
    "id": 2661310,
    "name": "GALERIES LAFAYETTE ANGERS",
    "phone": "02 41 88 05 50",
    "marker_image": "https:\/\/cdn.shopify.com\/s\/files\/1\/0209\/8325\/1008\/t\/3\/assets\/scasl_1548772084pin-map-saeve.png?8366626361900939188",
    "address": "6 rue d'Alsace BP2148",
    "city": "Angers",
    "postal": "49021"
  },
  {
    "lat": "43.9265903",
    "lng": "4.836250299999961",
    "id": 2661312,
    "name": "GALERIES LAFAYETTE AVIGNON CAP SUD",
    "phone": "04 90 88 91 05",
    "marker_image": "https:\/\/cdn.shopify.com\/s\/files\/1\/0209\/8325\/1008\/t\/3\/assets\/scasl_1548772084pin-map-saeve.png?8366626361900939188",
    "address": "Avenue de la Croix Rouge",
    "city": "Avignon",
    "postal": "84000"
  },
  {
    "lat": "48.61358689999999",
    "lng": "2.5501878000000033",
    "id": 2661315,
    "name": "GALERIES LAFAYETTE CARRE SENART",
    "phone": "01 64 13 59 75",
    "marker_image": "https:\/\/cdn.shopify.com\/s\/files\/1\/0209\/8325\/1008\/t\/3\/assets\/scasl_1548772084pin-map-saeve.png?8366626361900939188",
    "address": "Allée du Préambule",
    "city": "Lieusaint",
    "postal": "77127"
  },
  {
    "lat": "49.2534729",
    "lng": "4.0295525000000225",
    "id": 2661317,
    "name": "GALERIES LAFAYETTE REIMS",
    "phone": "03 26 40 35 12",
    "marker_image": "https:\/\/cdn.shopify.com\/s\/files\/1\/0209\/8325\/1008\/t\/3\/assets\/scasl_1548772084pin-map-saeve.png?8366626361900939188",
    "address": "33-45 rue de Vesle",
    "city": "Reims",
    "postal": "51058"
  },
  {
    "lat": "47.3907506",
    "lng": "0.6883374999999887",
    "id": 2661319,
    "name": "GALERIES LAFAYETTE TOURS",
    "phone": "02 47 31 28 28",
    "marker_image": "https:\/\/cdn.shopify.com\/s\/files\/1\/0209\/8325\/1008\/t\/3\/assets\/scasl_1548772084pin-map-saeve.png?8366626361900939188",
    "address": "77 rue Nationale BP827",
    "city": "Tours",
    "postal": "37008"
  },
  {
    "lat": "43.2701454",
    "lng": "5.393368099999975",
    "id": 2661321,
    "name": "GALERIES LAFAYETTE MARSEILLE PRADO",
    "phone": "04 91 16 23 00",
    "marker_image": "https:\/\/cdn.shopify.com\/s\/files\/1\/0209\/8325\/1008\/t\/3\/assets\/scasl_1548772084pin-map-saeve.png?8366626361900939188",
    "address": "Allée Ray Grassi",
    "city": "Marseille",
    "postal": "13008"
  },
  {
    "lat": "48.8844326",
    "lng": "2.477612000000022",
    "id": 2661322,
    "name": "GALERIES LAFAYETTE ROSNY",
    "phone": "01 48 12 01 20",
    "marker_image": "https:\/\/cdn.shopify.com\/s\/files\/1\/0209\/8325\/1008\/t\/3\/assets\/scasl_1548772084pin-map-saeve.png?8366626361900939188",
    "address": "Centre commerciel Rosny, 2 avenue du Général de Gaulle",
    "city": "Rosny-sous-Bois",
    "postal": "93117"
  },
  {
    "lat": "45.9072288",
    "lng": "6.135206000000039",
    "id": 2661324,
    "name": "GALERIES LAFAYETTE ANNECY",
    "phone": "04 50 33 82 12",
    "marker_image": "https:\/\/cdn.shopify.com\/s\/files\/1\/0209\/8325\/1008\/t\/3\/assets\/scasl_1548772084pin-map-saeve.png?8366626361900939188",
    "address": "Avenue du Parmelan BP96",
    "city": "Annecy",
    "postal": "74009"
  },
  {
    "lat": "45.8317916",
    "lng": "1.261539399999947",
    "id": 2661327,
    "name": "GALERIES LAFAYETTE LIMOGES",
    "phone": "05 55 10 03 00",
    "marker_image": "https:\/\/cdn.shopify.com\/s\/files\/1\/0209\/8325\/1008\/t\/3\/assets\/scasl_1548772084pin-map-saeve.png?8366626361900939188",
    "address": "6 rue Porte Tourny BP408",
    "city": "Limoges",
    "postal": "87011"
  },
  {
    "lat": "48.1103382",
    "lng": "-1.6802224000000479",
    "id": 2661328,
    "name": "GALERIES LAFAYETTE RENNES",
    "phone": "02 99 78 49 49",
    "marker_image": "https:\/\/cdn.shopify.com\/s\/files\/1\/0209\/8325\/1008\/t\/3\/assets\/scasl_1548772084pin-map-saeve.png?8366626361900939188",
    "address": "rue de Rohan et Quai Duguay Trouin BP80329",
    "city": "Rennes",
    "postal": "35000"
  },
  {
    "lat": "43.6084583",
    "lng": "3.8847734999999375",
    "id": 2661331,
    "name": "GALERIES LAFAYETTE MONTPELLIER",
    "phone": "04 67 64 83 00",
    "marker_image": "https:\/\/cdn.shopify.com\/s\/files\/1\/0209\/8325\/1008\/t\/3\/assets\/scasl_1548772084pin-map-saeve.png?8366626361900939188",
    "address": "Centre commercial Le Polygone BP9521",
    "city": "Montpellier",
    "postal": "34045"
  },
  {
    "lat": "49.1165447",
    "lng": "6.17261910000002",
    "id": 2661332,
    "name": "GALERIES LAFAYETTE METZ",
    "phone": "03 87 38 60 60",
    "marker_image": "https:\/\/cdn.shopify.com\/s\/files\/1\/0209\/8325\/1008\/t\/3\/assets\/scasl_1548772084pin-map-saeve.png?8366626361900939188",
    "address": "4 rue Winston Churchill",
    "city": "Metz",
    "postal": "57000"
  },
  {
    "lat": "47.3227412",
    "lng": "5.0372813999999835",
    "id": 2661333,
    "name": "GALERIES LAFAYETTE DIJON",
    "phone": "03 80 44 82 12",
    "marker_image": "https:\/\/cdn.shopify.com\/s\/files\/1\/0209\/8325\/1008\/t\/3\/assets\/scasl_1548772084pin-map-saeve.png?8366626361900939188",
    "address": "41-49 rue de la Liberté",
    "city": "Dijon",
    "postal": "21000"
  },
  {
    "lat": "43.4299061",
    "lng": "6.774672600000031",
    "id": 2661334,
    "name": "PHARMACIE DE VALESCURE",
    "phone": "04 94 95 23 69",
    "marker_image": "https:\/\/cdn.shopify.com\/s\/files\/1\/0209\/8325\/1008\/t\/3\/assets\/scasl_1548772084pin-map-saeve.png?8366626361900939188",
    "address": "149 avenue du 15ème Corps",
    "city": "Saint-Raphaël",
    "postal": "83700"
  },
  {
    "lat": "47.6745014",
    "lng": "-2.993488800000023",
    "id": 2758796,
    "name": "PHARMACIE GASNIER TEYROUZ",
    "phone": "02 97 24 04 91",
    "marker_image": "https:\/\/cdn.shopify.com\/s\/files\/1\/0209\/8325\/1008\/t\/3\/assets\/scasl_1548772084pin-map-saeve.png?8366626361900939188",
    "address": "86 avenue du Général de Gaulle",
    "city": "Auray",
    "postal": "56400"
  },
  {
    "lat": "47.2143473",
    "lng": "-1.5577825000000303",
    "id": 2758797,
    "name": "GRANDE PHARMACIE DE PARIS",
    "phone": "02 40 48 64 48",
    "marker_image": "https:\/\/cdn.shopify.com\/s\/files\/1\/0209\/8325\/1008\/t\/3\/assets\/scasl_1548772084pin-map-saeve.png?8366626361900939188",
    "address": "17 rue d'Orléans",
    "city": "Nantes",
    "postal": "44000"
  },
  {
    "lat": "48.107203",
    "lng": "-1.673563999999942",
    "id": 2905294,
    "name": "PHARMACIE PASCALE CLAIRE",
    "phone": "02 99 30 44 94",
    "marker_image": "https:\/\/cdn.shopify.com\/s\/files\/1\/0209\/8325\/1008\/t\/3\/assets\/scasl_1548772084pin-map-saeve.png?8366626361900939188",
    "address": "2 avenue Jean Janvier",
    "city": "Rennes",
    "postal": "35000"
  },
  {
    "lat": "46.3262291",
    "lng": "4.840189099999975",
    "id": 2905295,
    "name": "PHARMACIE DU KM 400",
    "phone": "03 85 38 36 74",
    "marker_image": "https:\/\/cdn.shopify.com\/s\/files\/1\/0209\/8325\/1008\/t\/3\/assets\/scasl_1548772084pin-map-saeve.png?8366626361900939188",
    "address": "224 avenue Charles de Gaulle - CC Auchan ",
    "city": "Macon",
    "postal": "71000"
  },
  {
    "lat": "48.1049215",
    "lng": "-1.68107550000002",
    "id": 2905296,
    "name": "PHARMACIE LAFAYETTE COLOMBIA",
    "phone": "02 99 31 48 37",
    "marker_image": "https:\/\/cdn.shopify.com\/s\/files\/1\/0209\/8325\/1008\/t\/3\/assets\/scasl_1548772084pin-map-saeve.png?8366626361900939188",
    "address": "40 place du Colombier",
    "address2": "Centre Commercial Entrée Nord",
    "city": "Rennes",
    "postal": "35000"
  },
  {
    "lat": "43.29943",
    "lng": "3.474155699999983",
    "id": 2905297,
    "name": "PHARMACIE SAINT LOUP",
    "phone": "04 67 94 25 47",
    "marker_image": "https:\/\/cdn.shopify.com\/s\/files\/1\/0209\/8325\/1008\/t\/3\/assets\/scasl_1548772084pin-map-saeve.png?8366626361900939188",
    "address": "Boulevard Maurice Pacull",
    "city": "Agde",
    "postal": "34300"
  },
  {
    "lat": "48.82848389999999",
    "lng": "2.301010499999961",
    "id": 2905298,
    "name": "PHARMACIE DE LA PORTE DE BRANCION",
    "phone": "01 48 28 32 55",
    "marker_image": "https:\/\/cdn.shopify.com\/s\/files\/1\/0209\/8325\/1008\/t\/3\/assets\/scasl_1548772084pin-map-saeve.png?8366626361900939188",
    "address": "94 boulevard Lefebvre",
    "city": "Paris",
    "postal": "75015"
  },
  {
    "lat": "48.3981514",
    "lng": "-4.4654239999999845",
    "id": 2988704,
    "name": "PHARMACIE DU DOURIC",
    "phone": "02 98 02 32 27",
    "marker_image": "https:\/\/cdn.shopify.com\/s\/files\/1\/0209\/8325\/1008\/t\/3\/assets\/scasl_1548772084pin-map-saeve.png?8366626361900939188",
    "address": "112 rue Saint Marc",
    "city": "Brest",
    "postal": "29200"
  },
  {
    "lat": "45.1761951",
    "lng": "4.816356600000063",
    "id": 2988705,
    "name": "PHARMACIE SAINT-ETIENNE",
    "phone": "04 75 23 04 09",
    "marker_image": "https:\/\/cdn.shopify.com\/s\/files\/1\/0209\/8325\/1008\/t\/3\/assets\/scasl_1548772084pin-map-saeve.png?8366626361900939188",
    "address": "12 place du Champ de Mars",
    "city": "Saint Vallier",
    "postal": "26240"
  },
  {
    "lat": "48.8280329",
    "lng": "2.116209099999992",
    "id": 2988706,
    "name": "PHARMACIE DU TRIANON ",
    "phone": "01 39 54 10 41",
    "marker_image": "https:\/\/cdn.shopify.com\/s\/files\/1\/0209\/8325\/1008\/t\/3\/assets\/scasl_1548772084pin-map-saeve.png?8366626361900939188",
    "address": "Centre Commercial Parly 2, 2 avenue Charles de Gaulle",
    "city": "Le Chesnay",
    "postal": "78150"
  },
  {
    "lat": "48.829552",
    "lng": "1.980462999999986",
    "id": 3147092,
    "name": "PARAPHARMACIE PARA-ONE",
    "phone": "01 53 05 37 37",
    "marker_image": "https:\/\/cdn.shopify.com\/s\/files\/1\/0209\/8325\/1008\/t\/3\/assets\/scasl_1548772084pin-map-saeve.png?8366626361900939188",
    "address": "1 Avenue du Président John F. Kennedy",
    "city": "Les Clayes-sous-Bois",
    "postal": "78340"
  },
  {
    "lat": "44.1396729",
    "lng": "4.091751799999997",
    "id": 3147093,
    "name": "PHARMACIE AGNES PRADEN",
    "phone": "04 66 30 06 08",
    "marker_image": "https:\/\/cdn.shopify.com\/s\/files\/1\/0209\/8325\/1008\/t\/3\/assets\/scasl_1548772084pin-map-saeve.png?8366626361900939188",
    "address": "Centre Commercial Intermarché, 198 avenue des Frères Lumière",
    "city": "Alès",
    "postal": "30100"
  },
  {
    "lat": "43.3461195",
    "lng": "-0.2546369000000368",
    "id": 3147094,
    "name": "PHARMACIE PEREZ",
    "phone": "05 59 33 69 25",
    "marker_image": "https:\/\/cdn.shopify.com\/s\/files\/1\/0209\/8325\/1008\/t\/3\/assets\/scasl_1548772084pin-map-saeve.png?8366626361900939188",
    "address": "Chemin Dou Mouly",
    "city": "Morlaàs",
    "postal": "64160"
  },
  {
    "lat": "47.9832457",
    "lng": "-4.108207099999959",
    "id": 3147095,
    "name": "PHARMACIE BREIZH IZEL",
    "phone": "02 98 90 06 12",
    "marker_image": "https:\/\/cdn.shopify.com\/s\/files\/1\/0209\/8325\/1008\/t\/3\/assets\/scasl_1548772084pin-map-saeve.png?8366626361900939188",
    "address": "11 rue Poher",
    "city": "Quimper",
    "postal": "29000"
  },
  {
    "lat": "45.2001777",
    "lng": "5.836253499999998",
    "id": 3147096,
    "name": "PHARMACIE SILVESTRE",
    "phone": "04 76 77 23 08",
    "marker_image": "https:\/\/cdn.shopify.com\/s\/files\/1\/0209\/8325\/1008\/t\/3\/assets\/scasl_1548772084pin-map-saeve.png?8366626361900939188",
    "address": "7bis rue Emile Blanc",
    "city": "Domène",
    "postal": "38420"
  },
  {
    "lat": "48.8587725",
    "lng": "2.3549359999999524",
    "id": 3182604,
    "name": "SOURCES",
    "phone": "06 43 37 71 96",
    "marker_image": "https:\/\/cdn.shopify.com\/s\/files\/1\/0209\/8325\/1008\/t\/3\/assets\/scasl_1548772084pin-map-saeve.png?8366626361900939188",
    "address": "38 rue sainte Croix de la Bretonnerie",
    "city": "Paris",
    "postal": "75004"
  },
  {
    "lat": "42.6902509",
    "lng": "2.891921400000001",
    "id": 3182605,
    "name": "GRANDE PHARMACIE DE CATALOGNE",
    "phone": "04 68 54 01 31",
    "marker_image": "https:\/\/cdn.shopify.com\/s\/files\/1\/0209\/8325\/1008\/t\/3\/assets\/scasl_1548772084pin-map-saeve.png?8366626361900939188",
    "address": "17 avenue Marcellin Albert",
    "city": "Perpignan",
    "postal": "66000"
  },
  {
    "lat": "48.8664739",
    "lng": "2.3643614999999727",
    "id": 3259993,
    "name": "PHARMACIE PLACE DE LA REPUBLIQUE",
    "phone": "01 47 00 18 08",
    "marker_image": "https:\/\/cdn.shopify.com\/s\/files\/1\/0209\/8325\/1008\/t\/3\/assets\/scasl_1548772084pin-map-saeve.png?8366626361900939188",
    "address": "5 Place de la République",
    "city": "Paris",
    "postal": "75003"
  },
  {
    "lat": "44.45023",
    "lng": "1.439928000000009",
    "id": 3281393,
    "name": "PHARMACIE CLÉMENT MAROT ",
    "phone": "05 65 35 27 50",
    "marker_image": "https:\/\/cdn.shopify.com\/s\/files\/1\/0209\/8325\/1008\/t\/3\/assets\/scasl_1548772084pin-map-saeve.png?8366626361900939188",
    "address": "6 Boulevard Léon Gambetta ",
    "city": "Cahors",
    "postal": "46000"
  },
  {
    "lat": "43.6596876",
    "lng": "7.195204099999955",
    "id": 3286159,
    "name": "GALERIES LAFAYETTE CAP 3000",
    "phone": "04 93 14 82 12",
    "marker_image": "https:\/\/cdn.shopify.com\/s\/files\/1\/0209\/8325\/1008\/t\/3\/assets\/scasl_1548772084pin-map-saeve.png?8366626361900939188",
    "address": "Avenue Eugene Donadei",
    "city": "Saint-Laurent-du-Var",
    "postal": "06700"
  },
  {
    "lat": "46.456989",
    "lng": "4.108948000000055",
    "id": 3286163,
    "name": "PHARMACIE CROSETTO",
    "phone": "03 85 81 06 08",
    "marker_image": "https:\/\/cdn.shopify.com\/s\/files\/1\/0209\/8325\/1008\/t\/3\/assets\/scasl_1548772084pin-map-saeve.png?8366626361900939188",
    "address": "1 Rue du Pré des Angles",
    "city": "Paray-le-Monial",
    "postal": "71600"
  },
  {
    "lat": "48.8292824",
    "lng": "1.9610212999999703",
    "id": 3286170,
    "name": "PHARMACIE MOUSSUS",
    "phone": "01 30 79 32 32",
    "marker_image": "https:\/\/cdn.shopify.com\/s\/files\/1\/0209\/8325\/1008\/t\/3\/assets\/scasl_1548772084pin-map-saeve.png?8366626361900939188",
    "address": " 21 Galerie Marchande Auchan",
    "city": "Plaisir ",
    "postal": "78370"
  },
  {
    "lat": "48.3534947",
    "lng": "-1.2013958000000002",
    "id": 3286171,
    "name": "PHARMACIE DE LA DOUVE",
    "phone": "02 99 99 17 43",
    "marker_image": "https:\/\/cdn.shopify.com\/s\/files\/1\/0209\/8325\/1008\/t\/3\/assets\/scasl_1548772084pin-map-saeve.png?8366626361900939188",
    "address": "Place de la Grande Douve",
    "city": "Fougères",
    "postal": "35300 "
  },
  {
    "lat": "43.8383063",
    "lng": "4.358288899999934",
    "id": 3286172,
    "name": "GRANDE PHARMACIE DE L'HORLOGE",
    "phone": "04 66 36 11 71",
    "marker_image": "https:\/\/cdn.shopify.com\/s\/files\/1\/0209\/8325\/1008\/t\/3\/assets\/scasl_1548772084pin-map-saeve.png?8366626361900939188",
    "address": "1 place de l'Horloge",
    "city": "Nîmes",
    "postal": "30000"
  },
  {
    "lat": "45.160721",
    "lng": "5.694253000000003",
    "id": 3286173,
    "name": "PHARMACIE DU BOURNET",
    "phone": "04 76 48 42 42",
    "marker_image": "https:\/\/cdn.shopify.com\/s\/files\/1\/0209\/8325\/1008\/t\/3\/assets\/scasl_1548772084pin-map-saeve.png?8366626361900939188",
    "address": "3 rue Henri Dunant",
    "city": "Seyssins",
    "postal": "38180"
  },
  {
    "lat": "48.107203",
    "lng": "-1.673563999999942",
    "id": 3286174,
    "name": "PHARMACIE PASCALE CLAIRE",
    "phone": "02 99 30 44 94",
    "marker_image": "https:\/\/cdn.shopify.com\/s\/files\/1\/0209\/8325\/1008\/t\/3\/assets\/scasl_1548772084pin-map-saeve.png?8366626361900939188",
    "address": "2 Avenue Jean Janvier",
    "city": "Rennes",
    "postal": "35000"
  },
  {
    "lat": "48.8204782",
    "lng": "2.3945495",
    "id": 3286175,
    "name": "PHARMACIE COURREGES",
    "phone": "02 99 89 60 33",
    "marker_image": "https:\/\/cdn.shopify.com\/s\/files\/1\/0209\/8325\/1008\/t\/3\/assets\/scasl_1548772084pin-map-saeve.png?8366626361900939188",
    "address": "CC Super U La Bretonniere",
    "city": "Cancale",
    "postal": "35260"
  },
  {
    "lat": "48.8204782",
    "lng": "2.3945495",
    "id": 3286176,
    "name": "PHARMACIE BOUGOT DELAUNE",
    "phone": "02 96 31 97 74",
    "marker_image": "https:\/\/cdn.shopify.com\/s\/files\/1\/0209\/8325\/1008\/t\/3\/assets\/scasl_1548772084pin-map-saeve.png?8366626361900939188",
    "address": "15 rue Saint Martin",
    "city": "Lamballe",
    "postal": "22400"
  },
  {
    "lat": "47.65257",
    "lng": "-2.0825812000000496",
    "id": 3286177,
    "name": "PHARMACIE CHAILLOU",
    "phone": "02 99 71 00 37",
    "marker_image": "https:\/\/cdn.shopify.com\/s\/files\/1\/0209\/8325\/1008\/t\/3\/assets\/scasl_1548772084pin-map-saeve.png?8366626361900939188",
    "address": "17 rue Saint Michel",
    "city": "Redon",
    "postal": "35600"
  },
  {
    "lat": "44.8416766",
    "lng": "-0.672908600000028",
    "id": 3286178,
    "name": "PARAPHARMACIE ROCADE SANTE BEAUTE",
    "phone": "05 56 96 99 31",
    "marker_image": "https:\/\/cdn.shopify.com\/s\/files\/1\/0209\/8325\/1008\/t\/3\/assets\/scasl_1548772084pin-map-saeve.png?8366626361900939188",
    "address": "16 rue des Chataigniers ",
    "city": "Merignac",
    "postal": "33700"
  },
  {
    "lat": "48.8769088",
    "lng": "2.3394600999999966",
    "id": 3286179,
    "name": "PHARMACIE DES MARTYRS",
    "phone": "01 48 78 27 26",
    "marker_image": "https:\/\/cdn.shopify.com\/s\/files\/1\/0209\/8325\/1008\/t\/3\/assets\/scasl_1548772084pin-map-saeve.png?8366626361900939188",
    "address": "4 rue des Martyrs",
    "city": "75009",
    "postal": "Paris"
  },
  {
    "lat": "47.7500994",
    "lng": "7.407792500000028",
    "id": 3286180,
    "name": "PHARMACIE DU MORTIER",
    "phone": "03 89 44 44 11",
    "marker_image": "https:\/\/cdn.shopify.com\/s\/files\/1\/0209\/8325\/1008\/t\/3\/assets\/scasl_1548772084pin-map-saeve.png?8366626361900939188",
    "address": "1 rue d'Ottmarsheim",
    "city": "Rixheim",
    "postal": "68170"
  },
  {
    "lat": "45.774114",
    "lng": "4.831659400000035",
    "id": 3286181,
    "name": "CARRE SANTE BEAUTE CROIX ROUSSE",
    "phone": "04 78 30 03 03",
    "marker_image": "https:\/\/cdn.shopify.com\/s\/files\/1\/0209\/8325\/1008\/t\/3\/assets\/scasl_1548772084pin-map-saeve.png?8366626361900939188",
    "address": "154 boulevard de la Croix Rousse",
    "city": "Lyon",
    "postal": "69001"
  },
  {
    "lat": "45.7437176",
    "lng": "4.873099400000001",
    "id": 3286182,
    "name": "CARRE SANTE BEAUTE MONPLAISIR",
    "phone": "04 78 78 80 78",
    "marker_image": "https:\/\/cdn.shopify.com\/s\/files\/1\/0209\/8325\/1008\/t\/3\/assets\/scasl_1548772084pin-map-saeve.png?8366626361900939188",
    "address": "121 Avenue des Frères Lumières",
    "city": "Lyon",
    "postal": "69008"
  },
  {
    "lat": "45.9869771",
    "lng": "4.718567300000018",
    "id": 3286183,
    "name": "CARRE SANTE BEAUTE VILLEFRANCHE",
    "phone": "04 72 65 44 22",
    "marker_image": "https:\/\/cdn.shopify.com\/s\/files\/1\/0209\/8325\/1008\/t\/3\/assets\/scasl_1548772084pin-map-saeve.png?8366626361900939188",
    "address": "931 rue Nationale",
    "city": "Villefranche",
    "postal": "69400"
  },
  {
    "lat": "45.7674372",
    "lng": "4.879060900000013",
    "id": 3286187,
    "name": "CARRE SANTE BEAUTE VILLEURBANNE",
    "phone": "04 72 65 47 47",
    "marker_image": "https:\/\/cdn.shopify.com\/s\/files\/1\/0209\/8325\/1008\/t\/3\/assets\/scasl_1548772084pin-map-saeve.png?8366626361900939188",
    "address": "36 Avenue Henri Barbusse",
    "city": "Villeurbanne",
    "postal": "69100"
  },
  {
    "lat": "46.85697709999999",
    "lng": "-1.0139256999999589",
    "id": 3309434,
    "name": "PHARMACIE FILLOUX LES HERBIERS",
    "phone": "02 51 66 85 00",
    "marker_image": "https:\/\/cdn.shopify.com\/s\/files\/1\/0209\/8325\/1008\/t\/3\/assets\/scasl_1548772084pin-map-saeve.png?8366626361900939188",
    "address": "1 avenue des Chauvières",
    "city": "Les Herbiers",
    "postal": "85500"
  },
  {
    "lat": "45.7746867",
    "lng": "3.082432199999971",
    "id": 3326213,
    "name": "PHARMACIE LAPORTE CENTRE JAUDE",
    "phone": "04 73 29 42 60",
    "marker_image": "https:\/\/cdn.shopify.com\/s\/files\/1\/0209\/8325\/1008\/t\/3\/assets\/scasl_1548772084pin-map-saeve.png?8366626361900939188",
    "address": "18 rue d'Allagnat",
    "city": "Clermont-Ferrand",
    "postal": "63000"
  },
  {
    "lat": "48.39715340000001",
    "lng": "-4.475674400000003",
    "id": 3450907,
    "name": "PHARMACIE DE L'OCTROI",
    "phone": "02 98 43 06 60",
    "marker_image": "https:\/\/cdn.shopify.com\/s\/files\/1\/0209\/8325\/1008\/t\/3\/assets\/scasl_1548772084pin-map-saeve.png?8366626361900939188",
    "address": "156 rue Jean Jaurès",
    "city": "Brest",
    "postal": "29200"
  },
  {
    "lat": "43.9250853",
    "lng": "2.1486413000000084",
    "id": 3450908,
    "name": "PHARMACIE REVEILLON",
    "phone": "05 63 43 34 34",
    "marker_image": "https:\/\/cdn.shopify.com\/s\/files\/1\/0209\/8325\/1008\/t\/3\/assets\/scasl_1548772084pin-map-saeve.png?8366626361900939188",
    "address": "48 avenue Charles de Gaulle",
    "city": "Albi",
    "postal": "81000"
  },
  {
    "lat": "43.6095817",
    "lng": "1.3933501000000206",
    "id": 3568183,
    "name": "PHARMACIE PURPAN",
    "phone": "05 61 15 09 55",
    "marker_image": "https:\/\/cdn.shopify.com\/s\/files\/1\/0209\/8325\/1008\/t\/3\/assets\/scasl_1548772084pin-map-saeve.png?8366626361900939188",
    "address": "Centre commercial Carrefour Toulouse Purpan, 36-54 Route de Bayonne",
    "city": "Toulouse",
    "postal": "31300"
  },
  {
    "lat": "43.6083293",
    "lng": "3.8800476000000117",
    "id": 3568184,
    "name": "PHARMACIE DE LA COMÉDIE",
    "phone": "04 67 58 54 94",
    "marker_image": "https:\/\/cdn.shopify.com\/s\/files\/1\/0209\/8325\/1008\/t\/3\/assets\/scasl_1548772084pin-map-saeve.png?8366626361900939188",
    "address": "1 rue de Verdun",
    "city": "34000",
    "postal": "Montpellier"
  },
  {
    "lat": "46.6672514",
    "lng": "-1.4417739000000438",
    "id": 3568185,
    "name": "PHARMACIE BASSET",
    "phone": "02 51 37 02 72",
    "marker_image": "https:\/\/cdn.shopify.com\/s\/files\/1\/0209\/8325\/1008\/t\/3\/assets\/scasl_1548772084pin-map-saeve.png?8366626361900939188",
    "address": "98 Rue Roger Salengro",
    "city": "La Roche-sur-Yon",
    "postal": "85000"
  },
  {
    "lat": "47.2215639",
    "lng": "-1.5622706000000335",
    "id": 3568186,
    "name": "PHARMACIE VIARME",
    "phone": "02 40 20 25 11",
    "marker_image": "https:\/\/cdn.shopify.com\/s\/files\/1\/0209\/8325\/1008\/t\/3\/assets\/scasl_1548772084pin-map-saeve.png?8366626361900939188",
    "address": "15 Place Viarme",
    "city": "Nantes",
    "postal": "44000"
  },
  {
    "lat": "46.4337796",
    "lng": "4.275103299999955",
    "id": 3568187,
    "name": "PHARMACIE DE L'ÉGLISE",
    "phone": "03 85 24 04 48",
    "marker_image": "https:\/\/cdn.shopify.com\/s\/files\/1\/0209\/8325\/1008\/t\/3\/assets\/scasl_1548772084pin-map-saeve.png?8366626361900939188",
    "address": "21 Place de l'Église",
    "city": "Charolles",
    "postal": "71120"
  },
  {
    "lat": "48.8832304",
    "lng": "2.3727034999999432",
    "id": 3568188,
    "name": "PHARMACIE DU PRÉ ROND",
    "phone": "04 73 89 30 00",
    "marker_image": "https:\/\/cdn.shopify.com\/s\/files\/1\/0209\/8325\/1008\/t\/3\/assets\/scasl_1548772084pin-map-saeve.png?8366626361900939188",
    "address": "22 Avenue Jean Jaurès",
    "city": "63500",
    "postal": "Issoire "
  },
  {
    "lat": "43.3110128",
    "lng": "3.4814817000000176",
    "id": 3568189,
    "name": "PHARMACIE DE LA PISCINE",
    "phone": "04 67 21 22 54",
    "marker_image": "https:\/\/cdn.shopify.com\/s\/files\/1\/0209\/8325\/1008\/t\/3\/assets\/scasl_1548772084pin-map-saeve.png?8366626361900939188",
    "address": "55 Avenue de Sète",
    "city": "Agde ",
    "postal": "34300 "
  },
  {
    "lat": "45.93893800000001",
    "lng": "2.8410599999999704",
    "id": 3568190,
    "name": "PHARMACIE THOMAS",
    "phone": "04 73 86 70 28",
    "marker_image": "https:\/\/cdn.shopify.com\/s\/files\/1\/0209\/8325\/1008\/t\/3\/assets\/scasl_1548772084pin-map-saeve.png?8366626361900939188",
    "address": "Place de l'Église",
    "city": "Saint-Georges-de-Mons",
    "postal": "63780"
  },
  {
    "lat": "43.6647042",
    "lng": "7.151488100000051",
    "id": 3568191,
    "name": "PHARMACIE CENTRALE BAZERIES",
    "phone": "09 92 13 04 36",
    "marker_image": "https:\/\/cdn.shopify.com\/s\/files\/1\/0209\/8325\/1008\/t\/3\/assets\/scasl_1548772084pin-map-saeve.png?8366626361900939188",
    "address": "4bis avenue Auguste Renoir 68000",
    "city": "Cagnes-sur-Mer",
    "postal": "06800"
  },
  {
    "lat": "44.8771538",
    "lng": "-0.6223841",
    "id": 3630387,
    "name": "PHARMACIE DE LA ROCADE BRUGES",
    "marker_image": "https:\/\/cdn.shopify.com\/s\/files\/1\/0209\/8325\/1008\/t\/3\/assets\/scasl_1548772084pin-map-saeve.png?8366626361900939188",
    "address": "453 route du Médoc",
    "city": "Bruges",
    "postal": "33520"
  },
  {
    "lat": "45.183539",
    "lng": "0.7195682",
    "id": 3630388,
    "name": "PHARMACIE ALIENOR",
    "phone": "05 53 53 38 31",
    "marker_image": "https:\/\/cdn.shopify.com\/s\/files\/1\/0209\/8325\/1008\/t\/3\/assets\/scasl_1548772084pin-map-saeve.png?8366626361900939188",
    "address": "9 rue Taillefer",
    "city": "Perigeux",
    "postal": "24000"
  },
  {
    "lat": "44.9068037",
    "lng": "-0.4891911",
    "id": 3630389,
    "name": "PARAPHARMACIE LECLERC SAINTE EULALIE",
    "phone": "05 56 77 35 18",
    "marker_image": "https:\/\/cdn.shopify.com\/s\/files\/1\/0209\/8325\/1008\/t\/3\/assets\/scasl_1548772084pin-map-saeve.png?8366626361900939188",
    "address": "Centre Commercial Grand Tour, avenue de l'Aquitaine",
    "city": "Sainte-Eulalie",
    "postal": "33560"
  },
  {
    "lat": "47.3225718",
    "lng": "5.0362684",
    "id": 3630390,
    "name": "GRANDE PHARMACIE BRUANT",
    "phone": "03 80 50 83 20",
    "marker_image": "https:\/\/cdn.shopify.com\/s\/files\/1\/0209\/8325\/1008\/t\/3\/assets\/scasl_1548772084pin-map-saeve.png?8366626361900939188",
    "address": "22 rue de la Liberté",
    "city": "Dijon",
    "postal": "21000"
  },
  {
    "lat": "43.4247965",
    "lng": "6.760308999999999",
    "id": 3630393,
    "name": "PHARMACIE DE FREJUS PLAGE",
    "phone": "04 94 51 43 32",
    "marker_image": "https:\/\/cdn.shopify.com\/s\/files\/1\/0209\/8325\/1008\/t\/3\/assets\/scasl_1548772084pin-map-saeve.png?8366626361900939188",
    "address": "265 boulevard de la Libération",
    "city": "Frejus",
    "postal": "83600"
  },
  {
    "lat": "43.3090496",
    "lng": "3.4767813",
    "id": 3654659,
    "name": "PHARMACIE DU SOLEIL",
    "phone": "04 90 78 71 71",
    "marker_image": "https:\/\/cdn.shopify.com\/s\/files\/1\/0209\/8325\/1008\/t\/3\/assets\/scasl_1548772084pin-map-saeve.png?8366626361900939188",
    "address": "13 boulevard du Soleil",
    "city": "Agde",
    "postal": "34300"
  },
  {
    "lat": "48.8467737",
    "lng": "2.2136676",
    "id": 3654660,
    "name": "MONOPRIX SAINT-CLOUD",
    "phone": "01 47 71 17 17",
    "marker_image": "https:\/\/cdn.shopify.com\/s\/files\/1\/0209\/8325\/1008\/t\/3\/assets\/scasl_1548772084pin-map-saeve.png?8366626361900939188",
    "address": "5 avenue du Maréchal Foch",
    "city": "Saint-Cloud",
    "postal": "92210"
  },
  {
    "lat": "48.851797",
    "lng": "2.3258185",
    "id": 3654661,
    "name": "PHARMACIE BABYLONE",
    "phone": "01 45 48 54 24",
    "marker_image": "https:\/\/cdn.shopify.com\/s\/files\/1\/0209\/8325\/1008\/t\/3\/assets\/scasl_1548772084pin-map-saeve.png?8366626361900939188",
    "address": "6 rue de Babylone",
    "city": "Paris",
    "postal": "75007"
  },
  {
    "lat": "48.5208536",
    "lng": "2.5697068",
    "id": 3654662,
    "name": "PHARMACIE DES VIGNES",
    "phone": "01 60 65 60 65",
    "marker_image": "https:\/\/cdn.shopify.com\/s\/files\/1\/0209\/8325\/1008\/t\/3\/assets\/scasl_1548772084pin-map-saeve.png?8366626361900939188",
    "address": "37 rue du Château",
    "city": "Boissise-le-Roi",
    "postal": "77310"
  },
  {
    "lat": "41.919229",
    "lng": "8.738635",
    "id": 3654663,
    "name": "PHARMACIE DES SALINES",
    "phone": "04 95 20 22 31",
    "marker_image": "https:\/\/cdn.shopify.com\/s\/files\/1\/0209\/8325\/1008\/t\/3\/assets\/scasl_1548772084pin-map-saeve.png?8366626361900939188",
    "address": "Résidence Princerial Cours François Piettri",
    "city": "Ajaccio",
    "postal": "20090"
  },
  {
    "lat": "41.957922",
    "lng": "8.798219",
    "id": 3654664,
    "name": "PHARMACIE OTTAVY SYLVAIN",
    "phone": "04 95 21 66 59",
    "marker_image": "https:\/\/cdn.shopify.com\/s\/files\/1\/0209\/8325\/1008\/t\/3\/assets\/scasl_1548772084pin-map-saeve.png?8366626361900939188",
    "address": "Lieu dit Effrico rond Point Baléone",
    "city": "Sarola-Carcopino",
    "postal": "20167"
  },
  {
    "lat": "45.7348976",
    "lng": "3.1913768",
    "id": 3743126,
    "name": "PHARMACIE DU MIDI",
    "phone": "04 73 84 71 73",
    "marker_image": "https:\/\/cdn.shopify.com\/s\/files\/1\/0209\/8325\/1008\/t\/3\/assets\/scasl_1548772084pin-map-saeve.png?8366626361900939188",
    "address": "11 Avenue du Midi",
    "city": "Cournon-d'Auvergne",
    "postal": "63800"
  },
  {
    "lat": "47.74910149999999",
    "lng": "-3.3594592",
    "id": 3743127,
    "name": "PHARMACIE DE LA LIBERTÉ",
    "phone": "02 97 64 33 40 ",
    "marker_image": "https:\/\/cdn.shopify.com\/s\/files\/1\/0209\/8325\/1008\/t\/3\/assets\/scasl_1548772084pin-map-saeve.png?8366626361900939188",
    "address": "47 Avenue du Maréchal Foch",
    "city": "Lorient",
    "postal": "56100"
  },
  {
    "lat": "43.3465465",
    "lng": "5.4623514",
    "id": 3743128,
    "name": "PHARMACIE CENTRALE",
    "phone": "04 91 68 04 42",
    "marker_image": "https:\/\/cdn.shopify.com\/s\/files\/1\/0209\/8325\/1008\/t\/3\/assets\/scasl_1548772084pin-map-saeve.png?8366626361900939188",
    "address": "47 Avenue Frédéric Chevillon",
    "city": "Plan-de-Cuques",
    "postal": "13380"
  },
  {
    "lat": "45.7789027",
    "lng": "3.0812865",
    "id": 3788949,
    "name": "PHARMACIE DU 11 NOVEMBRE",
    "phone": "04 73 37 58 01",
    "marker_image": "https:\/\/cdn.shopify.com\/s\/files\/1\/0209\/8325\/1008\/t\/3\/assets\/scasl_1548772084pin-map-saeve.png?8366626361900939188",
    "address": "28 Avenue des États Unis",
    "city": "Clermont-Ferrand",
    "postal": "63000"
  },
  {
    "lat": "47.20515570000001",
    "lng": "-1.3059728",
    "id": 3788950,
    "name": "PHARMACIE SAINT COME",
    "phone": "02 40 06 40 58",
    "marker_image": "https:\/\/cdn.shopify.com\/s\/files\/1\/0209\/8325\/1008\/t\/3\/assets\/scasl_1548772084pin-map-saeve.png?8366626361900939188",
    "address": "5 Place André Ripoche",
    "city": "Le Landreau",
    "postal": "44430"
  },
  {
    "lat": "48.3476766",
    "lng": "-2.7570636",
    "id": 3788965,
    "name": "PHARMACIE BOUVRAIS RAULT",
    "phone": "02 96 42 15 93",
    "marker_image": "https:\/\/cdn.shopify.com\/s\/files\/1\/0209\/8325\/1008\/t\/3\/assets\/scasl_1548772084pin-map-saeve.png?8366626361900939188",
    "address": "8 rue de Montifault",
    "city": "Plœuc-L'Hermitage",
    "postal": " 22150"
  },
  {
    "lat": "48.8199905",
    "lng": "2.3960097",
    "id": 3788978,
    "name": "PHARMACIE DU CARRÉ",
    "phone": "04 67 09 08 38",
    "marker_image": "https:\/\/cdn.shopify.com\/s\/files\/1\/0209\/8325\/1008\/t\/3\/assets\/scasl_1548772084pin-map-saeve.png?8366626361900939188",
    "address": "62 Avenue Jean Moulin",
    "city": "Béziers",
    "postal": "34500"
  },
  {
    "lat": "44.9563788",
    "lng": "-0.6275296",
    "id": 3789002,
    "name": "PHARMACIE ROCADE PORTES DU MEDOC",
    "phone": "05 56 57 06 22",
    "marker_image": "https:\/\/cdn.shopify.com\/s\/files\/1\/0209\/8325\/1008\/t\/3\/assets\/scasl_1548772084pin-map-saeve.png?8366626361900939188",
    "address": "E.Leclerc Le Pian, Route de Pauillac",
    "city": "Le Pian-Médoc",
    "postal": "33290"
  },
  {
    "lat": "48.8570974",
    "lng": "2.3541317",
    "id": 3789006,
    "name": "PHARMACIE DES ARCHIVES",
    "phone": "01 42 78 45 56",
    "marker_image": "https:\/\/cdn.shopify.com\/s\/files\/1\/0209\/8325\/1008\/t\/3\/assets\/scasl_1548772084pin-map-saeve.png?8366626361900939188",
    "address": "2 Rue des Archives",
    "city": "Paris",
    "postal": "75004"
  },
  {
    "lat": "47.2169469",
    "lng": "-1.5597423",
    "id": 3789010,
    "name": "PHARMACIE DE BRETAGNE",
    "phone": "02 40 48 74 35",
    "marker_image": "https:\/\/cdn.shopify.com\/s\/files\/1\/0209\/8325\/1008\/t\/3\/assets\/scasl_1548772084pin-map-saeve.png?8366626361900939188",
    "address": "13 Rue de Budapest",
    "city": "Nantes",
    "postal": "44000"
  },
  {
    "lat": "43.583583",
    "lng": "3.8586317",
    "id": 3810597,
    "name": "PHARMACIE DES GRISETTES",
    "phone": "04 67 92 61 35",
    "marker_image": "https:\/\/cdn.shopify.com\/s\/files\/1\/0209\/8325\/1008\/t\/3\/assets\/scasl_1548772084pin-map-saeve.png?8366626361900939188",
    "address": "100 Rambla des Calissons",
    "city": "Montpellier",
    "postal": "34070"
  },
  {
    "lat": "46.5519928",
    "lng": "3.3686742",
    "id": 3810598,
    "name": "PHARMACIE CHARVET",
    "phone": "04 70 46 40 96",
    "marker_image": "https:\/\/cdn.shopify.com\/s\/files\/1\/0209\/8325\/1008\/t\/3\/assets\/scasl_1548772084pin-map-saeve.png?8366626361900939188",
    "address": "Centre Commercial Carrefour MARKET, 65 Route de Montbeugny",
    "city": "Yzeure",
    "postal": "03400"
  },
  {
    "lat": "47.2757941",
    "lng": "-2.3573016",
    "id": 3810599,
    "name": "PHARMACIE DE LA FORÊT",
    "phone": "02 40 24 28 38",
    "marker_image": "https:\/\/cdn.shopify.com\/s\/files\/1\/0209\/8325\/1008\/t\/3\/assets\/scasl_1548772084pin-map-saeve.png?8366626361900939188",
    "address": "70 Avenue de Lyon",
    "city": "La Baule-Escoublac",
    "postal": "44500"
  },
  {
    "lat": "43.4936416",
    "lng": "-1.5247519",
    "id": 3810600,
    "name": "PHARMACIE BOIS BELIN",
    "phone": "05 59 03 23 30",
    "marker_image": "https:\/\/cdn.shopify.com\/s\/files\/1\/0209\/8325\/1008\/t\/3\/assets\/scasl_1548772084pin-map-saeve.png?8366626361900939188",
    "address": "Centre URBEGI,  Rue Jean Mouton",
    "city": "Anglet",
    "postal": "64600"
  },
  {
    "lat": "43.3208858",
    "lng": "-0.3789879",
    "id": 4851580,
    "name": "PHARMACIE DES 7 CANTONS LONS",
    "phone": "06 09 74 99 55",
    "address": "169 avenue Jean Mermoz",
    "country": "France",
    "city": "Lons",
    "postal": "64140"
  },
  {
    "lat": "47.267224",
    "lng": "-1.4412708",
    "id": 4851581,
    "name": "GRANDE PHARMACIE DU THOUARE CENTRE",
    "phone": "02 40 77 33 48",
    "address": "2 RUE DE CARQUEFOU",
    "country": "France",
    "city": "THOUARE SUR LOIRE",
    "postal": "44470"
  },
  {
    "lat": "43.6634154",
    "lng": "7.1286209",
    "id": 4851582,
    "name": "PHARMACIE DU POLYGONE RIVIERA",
    "phone": "04 97 02 01 01",
    "address": "CENTRE COMMERCIAL POLYGONE RIVIERA",
    "country": "France",
    "city": "CAGNES SUR MER",
    "postal": "06800"
  },
  {
    "lat": "43.4251387",
    "lng": "6.750394",
    "id": 4880282,
    "name": "PHARMACIE FORUM JULII",
    "phone": "04 94 51 51 54",
    "address": "470 Rue Hippolyte Fabre",
    "country": "France",
    "city": "FREJUS",
    "postal": "83600"
  },
  {
    "lat": "46.98492239999999",
    "lng": "-1.2308075",
    "id": 4880285,
    "name": "PHARMACIE DES TROIS PROVINCES",
    "phone": "02 51 41 71 48",
    "address": "16 RUE FERDINAND JAUFFRINNEAU",
    "country": "France",
    "city": "TREIZE SEPTIERS",
    "postal": "85600"
  },
  {
    "lat": "44.79514899999999",
    "lng": "-0.6687911",
    "id": 4880287,
    "name": "PHARMACIE DE PESSAC FRANCE",
    "phone": "05 56 36 22 08",
    "address": "48 bis av du general leclerc",
    "country": "France",
    "city": "PESSAC",
    "postal": "33600"
  },
  {
    "lat": "48.8199905",
    "lng": "2.3960097",
    "id": 5175543,
    "name": "Galerie Lafayette LIBOURNE",
    "phone": "05 57 74 14 72",
    "address": "21 RUE GAMBETTA",
    "country": "France",
    "state": "Aquitaine",
    "city": "LIBOURNE",
    "postal": "33500"
  },
  {
    "lat": "48.8199905",
    "lng": "2.3960097",
    "id": 5175546,
    "name": "Galerie Lafayette LANGON",
    "phone": "05 57 98 01 40",
    "address": "5 PLACE DU GENERAL DE GAULLE",
    "country": "France",
    "state": "Aquitaine",
    "city": "LANGON",
    "postal": "33210"
  },
  {
    "lat": "48.8199905",
    "lng": "2.3960097",
    "id": 5175547,
    "name": "Galerie Lafayette DAX",
    "phone": "0558747265",
    "address": "19 rue saint vincent BP365",
    "country": "France",
    "state": "Aquitaine",
    "city": "DAX",
    "postal": "40108"
  },
  {
    "lat": "48.8199905",
    "lng": "2.3960097",
    "id": 5175548,
    "name": "Galerie Lafayette BORDEAUX DIJEAUX",
    "phone": "0556909271",
    "address": "PLACE PUY PAULIN",
    "country": "France",
    "state": "Aquitaine",
    "city": "BORDEAUX CEDEX",
    "postal": "33036"
  },
  {
    "lat": "48.8199905",
    "lng": "2.3960097",
    "id": 5175549,
    "name": "Galerie Lafayette TOULON",
    "phone": "0494223971",
    "address": "11 boulevard de Strasbourg BP5519",
    "country": "France",
    "city": "TOULON CEDEX",
    "postal": "83098"
  },
  {
    "lat": "48.8199905",
    "lng": "2.3960097",
    "id": 5175550,
    "name": "Galerie Lafayette CAP 3000",
    "phone": "0493148212",
    "address": "BP 126 QUARTIER DU LAC",
    "country": "France",
    "city": "SAINT LAURENT DU VAR CEDEX",
    "postal": "06007"
  },
  {
    "lat": "48.8199905",
    "lng": "2.3960097",
    "id": 5175560,
    "name": "Galerie Lafayette NICE MASSENA",
    "phone": "0492173636",
    "address": "6 avenue jean medecin BP399",
    "country": "France",
    "city": "NICE CEDEX",
    "postal": "06007"
  },
  {
    "lat": "48.8199905",
    "lng": "2.3960097",
    "id": 5175562,
    "name": "Galerie Lafayette NIORT",
    "phone": "0549244123",
    "address": "47 rue victor hugo BP81",
    "country": "France",
    "city": "NIORT",
    "postal": "79003"
  },
  {
    "lat": "48.8199905",
    "lng": "2.3960097",
    "id": 5175566,
    "name": "Galerie Lafayette Saintes",
    "phone": "0546934722",
    "address": "1 cours national BP48",
    "city": "SAINTES",
    "postal": "17102"
  },
  {
    "lat": "48.8199905",
    "lng": "2.3960097",
    "id": 5175568,
    "name": "Galerie Lafayette la roche sur yon",
    "phone": "0251622224",
    "address": "18 rie Georges Clemenceau BP189",
    "country": "France",
    "city": "LA ROCHE SUR YON",
    "postal": "85005"
  },
  {
    "lat": "48.8199905",
    "lng": "2.3960097",
    "id": 5175569,
    "name": "Galerie Lafayette LA ROCHELLE",
    "phone": "0546412733",
    "address": "31-39 rue du palais BP1086",
    "country": "France",
    "city": "LA ROCHELLE CEDEX 02",
    "postal": "17087"
  },
  {
    "lat": "48.8199905",
    "lng": "2.3960097",
    "id": 5175570,
    "name": "Galerie Lafayette LE MANS",
    "phone": "0243243491",
    "address": "17-21 RUE DES MINIMES ",
    "country": "France",
    "city": "LE MANS",
    "postal": "72000"
  },
  {
    "lat": "48.8199905",
    "lng": "2.3960097",
    "id": 5175571,
    "name": "Galerie Lafayette NANTES DECRE",
    "phone": "0240998212",
    "address": "2 A 20 RUE DE LA MARNE BP12408",
    "country": "France",
    "city": "NANTES CEDEX 01",
    "postal": "35103"
  },
  {
    "lat": "48.8199905",
    "lng": "2.3960097",
    "id": 5175572,
    "name": "Galerie Lafayette CHALON SUR SAONE",
    "phone": "0385480139",
    "address": "17 boulevard de la république",
    "country": "France",
    "city": "CHALON SUR SAONE",
    "postal": "71100"
  },
  {
    "lat": "48.8199905",
    "lng": "2.3960097",
    "id": 5175573,
    "name": "Galerie Lafayette BESANCON",
    "phone": "0381821878",
    "address": "44 rue des granges BP319",
    "country": "France",
    "city": "BESANCON CEDEX",
    "postal": "25017"
  },
  {
    "lat": "48.8199905",
    "lng": "2.3960097",
    "id": 5175574,
    "name": "Galerie Lafayette LYON PART-DIEU ",
    "phone": "0472614444",
    "address": "CENTRE COMMERCIAL LA PART DIEU",
    "country": "France",
    "city": "LYON CEDEX 03",
    "postal": "69431"
  },
  {
    "lat": "48.8199905",
    "lng": "2.3960097",
    "id": 5175580,
    "name": "Galerie Lafayette LYON BRON",
    "phone": "0478778212",
    "address": "209-221 boulevard pinel",
    "country": "France",
    "city": "BRON CEDEX",
    "postal": "69671"
  },
  {
    "lat": "48.8199905",
    "lng": "2.3960097",
    "id": 5175582,
    "name": "Galerie Lafayette TARBES",
    "phone": "0562440820",
    "address": "28-30 RUE DU MARECHAL FOCH BP750",
    "country": "France",
    "city": "TARBES",
    "postal": "65001"
  },
  {
    "lat": "48.8199905",
    "lng": "2.3960097",
    "id": 5175584,
    "name": "Galerie Lafayette BEZIERS ",
    "phone": "0467281385",
    "address": "19 rue boildieu",
    "country": "France",
    "city": "BEZIERS",
    "postal": "34500"
  },
  {
    "lat": "48.8199905",
    "lng": "2.3960097",
    "id": 5175585,
    "name": "Galerie Lafayette PAU",
    "phone": "0559279858",
    "address": "20 place georges clemenceau",
    "country": "France",
    "city": "PAU",
    "postal": "64000"
  },
  {
    "lat": "48.8199905",
    "lng": "2.3960097",
    "id": 5175588,
    "name": "Galerie Lafayette TOULOUSE LAPEYROUSSE",
    "phone": "0534459898",
    "address": "4 à 8 rue lapeyrousse BP30819",
    "country": "France",
    "city": "TOULOUSE CEDEX",
    "postal": "31008"
  },
  {
    "lat": "48.8199905",
    "lng": "2.3960097",
    "id": 5175589,
    "name": "Galerie Lafayette MARSEILLE BOURSE",
    "phone": "0491568212",
    "address": "28 RUE BIR HAKEIM",
    "country": "France",
    "city": "MARSEILLE",
    "postal": "13001"
  },
  {
    "lat": "48.8199905",
    "lng": "2.3960097",
    "id": 5175590,
    "name": "Galerie Lafayette BELFORT",
    "phone": "0384216345",
    "address": "23-34 FAUBOURG DE FRANCE",
    "country": "France",
    "city": "BELFORT",
    "postal": "90000"
  },
  {
    "lat": "48.8199905",
    "lng": "2.3960097",
    "id": 5175591,
    "name": "Galerie Lafayette BEAUVAIS",
    "phone": "0344481607",
    "address": "2 RUE DES JACOBINS BP838",
    "country": "France",
    "city": "BEAUVAIS CEDEX",
    "postal": "60008"
  },
  {
    "lat": "48.8199905",
    "lng": "2.3960097",
    "id": 5175593,
    "name": "Galerie Lafayette CAEN",
    "phone": "0231393100",
    "address": "108 BOULEVARD DU MARECHAL LECLERC BP45016",
    "country": "France",
    "city": "CAEN CEDEX 04",
    "postal": "14050"
  },
  {
    "lat": "48.8199905",
    "lng": "2.3960097",
    "id": 5175594,
    "name": "Galerie Lafayette ORLEANS",
    "phone": "0238542440",
    "address": "6 rue thiers",
    "country": "France",
    "city": "ORLEANS",
    "postal": "45044"
  },
  {
    "lat": "48.8199905",
    "lng": "2.3960097",
    "id": 5175595,
    "name": "Galerie Lafayette STRASBOURG",
    "phone": "0388152300",
    "address": "34 RUE DU 22 NOVEMBRE",
    "country": "France",
    "city": "STRASBOURG",
    "postal": "67000"
  },
  {
    "lat": "48.8199905",
    "lng": "2.3960097",
    "id": 5175596,
    "name": "Galerie Lafayette Luxembourg",
    "phone": "35223633500",
    "address": "103 grande-rue",
    "country": "France",
    "city": "luxembourg",
    "postal": "01661"
  },
  {
    "lat": "48.8199905",
    "lng": "2.3960097",
    "id": 5175597,
    "name": "BHV RIVOLI",
    "phone": "0142749919",
    "address": "RUE DE RIVOLI",
    "country": "France",
    "city": "PARIS",
    "postal": "75004"
  },
  {
    "lat": "48.8199905",
    "lng": "2.3960097",
    "id": 5378131,
    "name": "PHARMACIE SAINT ROMAN",
    "phone": "0492105410",
    "address": "CC SAINT ROMAN  - 45 AVENUE DE SAINT ROMAN",
    "city": "MENTON",
    "postal": "06500"
  },
  {
    "lat": "48.8199905",
    "lng": "2.3960097",
    "id": 5378132,
    "name": "PHARMACIE DU CENTRE RUEIL MALMAISON",
    "phone": "01 47 49 01 36",
    "address": "48 AVENUE DE FOUILLEUSE",
    "city": "RUEIL MALMAISON",
    "postal": "92500"
  },
  {
    "lat": "48.8199905",
    "lng": "2.3960097",
    "id": 5378133,
    "name": "PHARMACIE DE LA BRETESCHE",
    "phone": "02 40 88 30 24",
    "address": "10 RUE DE LA FONTAINE SAINT JEAN",
    "city": "MISSILLAC",
    "postal": "44780"
  },
  {
    "lat": "48.8199905",
    "lng": "2.3960097",
    "id": 5378134,
    "name": "PHARMACIE CACHAT",
    "phone": "04 50 75 12 56",
    "address": "34 RUE NATIONALE",
    "city": "EVIAN",
    "postal": "74500"
  },
  {
    "lat": "48.8199905",
    "lng": "2.3960097",
    "id": 5378135,
    "name": "PHARMASIMPLE",
    "phone": "3264337128",
    "address": "Bd du millenium 11",
    "city": "Houdeng-Goegnies - Belgique",
    "postal": "7110"
  },
  {
    "lat": "48.8199905",
    "lng": "2.3960097",
    "id": 5378136,
    "name": "PHARMACIE DE LA COTINIERE",
    "phone": "05 46 47 26 54",
    "address": "49 AV DES PINS",
    "city": "LA COTINIERE",
    "postal": "17310"
  },
  {
    "lat": "48.8199905",
    "lng": "2.3960097",
    "id": 5378138,
    "name": "PHARMASUD",
    "phone": "04 95 21 58 48",
    "address": "L.D. CAMPICCIOLI LA ROCADE, RD PT D'ARCA",
    "city": "PORTO VECCHIO",
    "postal": "20137"
  },
  {
    "lat": "48.8199905",
    "lng": "2.3960097",
    "id": 5378139,
    "name": "PHARMACIE DE L'EUROPE MAURS",
    "phone": "04 71 49 05 21",
    "address": "29 PLACE DE L'EUROPE",
    "city": "MAURS",
    "postal": "15600"
  },
  {
    "lat": "48.8199905",
    "lng": "2.3960097",
    "id": 5378140,
    "name": "PHARMACIE DE LA VALLEE VERTE",
    "phone": "04 50 39 10 08",
    "address": "43 PLACE DES MARONNIERS",
    "city": "BOEGE",
    "postal": "74420"
  },
  {
    "lat": "48.8199905",
    "lng": "2.3960097",
    "id": 5378141,
    "name": "PHARMACIE PRINCIPALE COULOMMIERS",
    "phone": "01 64 03 00 36",
    "address": "4 BOULEVARD DE LA MARNE",
    "city": "COULOMMIERS",
    "postal": "77120"
  },
  {
    "lat": "48.8199905",
    "lng": "2.3960097",
    "id": 5378142,
    "name": "PHARMACIE DU PROGRES",
    "phone": "04 78 72 46 33",
    "address": "41 ROUTE DE VIENNE",
    "city": "LYON",
    "postal": "69007"
  },
  {
    "lat": "48.8199905",
    "lng": "2.3960097",
    "id": 5378144,
    "name": "PHARMACIE DU POLYGONE",
    "phone": "08 90 03 77 33",
    "address": "71 RUE DES PERTUISANES",
    "city": "MONTPELLIER",
    "postal": "34000"
  },
  {
    "lat": "48.8199905",
    "lng": "2.3960097",
    "id": 5378146,
    "name": "PHARMACIE CHEMIN LONG",
    "phone": "05 56 34 01 22",
    "address": "110 Avenue de la Somme",
    "city": "MERIGNAC",
    "postal": "33700"
  },
  {
    "lat": "48.8199905",
    "lng": "2.3960097",
    "id": 5378148,
    "name": "PHARMACIE MONGE NOTRE DAME",
    "phone": "01 43 31 39 44 ",
    "address": "1 PLACE MONGE",
    "city": "Paris",
    "postal": "75005"
  },
  {
    "lat": "48.8199905",
    "lng": "2.3960097",
    "id": 5378149,
    "name": "PHARMACIE DE LA REPUBLIQUE",
    "phone": "04 67 98 40 74",
    "address": "56 PLACE DE LA REPUBLIQUE",
    "city": "CAUX",
    "postal": "34720"
  },
  {
    "lat": "48.8199905",
    "lng": "2.3960097",
    "id": 5759360,
    "name": "PHAMARCIE DU BOURG (WAMBRE)",
    "address": "389 Avenue de l'Hippodrome",
    "country": "France",
    "city": "Lambersart",
    "postal": "59130"
  }
]